{
"type": "FeatureCollection",
"crs": { "type": "name", "properties": { "name": "urn:ogc:def:crs:OGC:1.3:CRS84" } },
                                                                                
"features": [
{ "type": "Feature", "properties": { "lat": 53.1895, "lon": -3.032829, "name": "S Bartholomey t\/a Bart Motors", "address": "Unit 29<br> Sambucas Avenue<br> Llandow Trading Est<br> Cowbridge<br> Vale Of Glam", "postcode": "CF71 7PB", "town": "Cowbridge", "phone": "01446 795366", "id": 34258, "region": "EA Wales" }, "geometry": { "type": "Point", "coordinates": [ -3.032829, 53.1895 ] } },
{ "type": "Feature", "properties": { "lat": 53.26892, "lon": -3.171054, "name": "Grandstage Ltd", "address": "Unit 6<br> Millbrook Ind Est<br> Landore<br> Swansea", "postcode": "SA1 2NT", "town": "Swansea", "phone": null, "id": 34304, "region": "EA Wales" }, "geometry": { "type": "Point", "coordinates": [ -3.171054, 53.26892 ] } },
{ "type": "Feature", "properties": { "lat": 53.1007, "lon": -3.006454, "name": "Bagillt Car Spares", "address": "Bettwsfield Colliery<br> Bagillt<br> Flint", "postcode": "CH6 6AE", "town": "Flint", "phone": "01352 710430", "id": 37131, "region": "EA Wales" }, "geometry": { "type": "Point", "coordinates": [ -3.006454, 53.1007 ] } },
{ "type": "Feature", "properties": { "lat": 53.32725, "lon": -3.304069, "name": "A Davies & C Davies T\/A Phoenix Metals", "address": "Gaerwen Ind Est<br> Gaerwen<br> Ynys Mon", "postcode": "LL65 4DD", "town": "Ynys Mon", "phone": "01248 421995", "id": 37133, "region": "EA Wales" }, "geometry": { "type": "Point", "coordinates": [ -3.304069, 53.32725 ] } },
{ "type": "Feature", "properties": { "lat": 53.021711, "lon": -3.05752, "name": "Matthews Autosalvage", "address": "Bont Ddu<br> Pentre Berw<br> Gaerwen<br> Ynys Mon", "postcode": "LL60 6LF", "town": "Ynys Mon", "phone": "01248 421777", "id": 37141, "region": "EA Wales" }, "geometry": { "type": "Point", "coordinates": [ -3.05752, 53.021711 ] } },
{ "type": "Feature", "properties": { "lat": 53.1977, "lon": -2.992694, "name": "H Rowlands & Sons", "address": "Pen y Bont Yard<br> Pen y Bont<br> Bala<br> Gwynedd", "postcode": "LL23 7PH", "town": "Bala", "phone": "01678 520382", "id": 37143, "region": "EA Wales" }, "geometry": { "type": "Point", "coordinates": [ -2.992694, 53.1977 ] } },
{ "type": "Feature", "properties": { "lat": 53.21432, "lon": -3.007609, "name": "D Kelly T\/A Legacy Car Dismantlers", "address": "Esclusham Mill<br> Llwyneinon Road<br> Legacy<br> Wrexham", "postcode": "LL14 4ET", "town": "Wrexham", "phone": "01978 843253", "id": 37154, "region": "EA Wales" }, "geometry": { "type": "Point", "coordinates": [ -3.007609, 53.21432 ] } },
{ "type": "Feature", "properties": { "lat": 52.995865, "lon": -3.042764, "name": "Userve Ltd t\/a Copart UK", "address": "Prince William Avenue<br> Sandycroft<br> Chester<br> Flintshire", "postcode": "CH5 2QZ", "town": "Chester", "phone": "01234 766500", "id": 37210, "region": "EA Wales" }, "geometry": { "type": "Point", "coordinates": [ -3.042764, 52.995865 ] } },
{ "type": "Feature", "properties": { "lat": 53.215205, "lon": -3.047389, "name": "E Bennet t\/a Queensferry Car Breakers", "address": "By Pass Road<br> Queensferry<br> Flintshire", "postcode": "CH5 2DU", "town": "Queensferry", "phone": "01244 811109", "id": 37220, "region": "EA Wales" }, "geometry": { "type": "Point", "coordinates": [ -3.047389, 53.215205 ] } },
{ "type": "Feature", "properties": { "lat": 53.174385, "lon": -2.935514, "name": "H K Williams", "address": "Gardden Ind Est<br> Ruabon<br> Wrexham", "postcode": "LL14 6RG", "town": "Wrexham", "phone": "01978 810100", "id": 37231, "region": "EA Wales" }, "geometry": { "type": "Point", "coordinates": [ -2.935514, 53.174385 ] } },
{ "type": "Feature", "properties": { "lat": 53.01381, "lon": -3.393733, "name": "Cambrian Autopart Northwest Ltd", "address": "Unit 1<br> Glan-Y-Morfa Industrial Estate<br> Marsh Road<br> Rhyl", "postcode": "LL18 2AD", "town": "Rhyl", "phone": "01745 342488", "id": 37261, "region": "EA Wales" }, "geometry": { "type": "Point", "coordinates": [ -3.393733, 53.01381 ] } },
{ "type": "Feature", "properties": { "lat": 53.174385, "lon": -2.935514, "name": "Aberconwyn Auto Salvage", "address": "The Old Brickworks<br> Plot 1<br> Tre Marl Ind Est<br> Llandudno Junction<br> Conwy", "postcode": "LL31 9PN", "town": "Conwy", "phone": "01492 581023", "id": 37262, "region": "EA Wales" }, "geometry": { "type": "Point", "coordinates": [ -2.935514, 53.174385 ] } },
{ "type": "Feature", "properties": { "lat": 53.039398, "lon": -2.91771, "name": "Lelo Metal Recycling Ltd", "address": "Unit 11 Craiglelo<br> Gwyddelwern<br> Corwen<br> Denbighshire", "postcode": "LL21 9SD", "town": "Corwen", "phone": null, "id": 37263, "region": "EA Wales" }, "geometry": { "type": "Point", "coordinates": [ -2.91771, 53.039398 ] } },
{ "type": "Feature", "properties": { "lat": 53.274549, "lon": -3.225195, "name": "Entrec", "address": "Redwither Road<br> Wrexham Industrial Estate<br> Wrexham", "postcode": "LL13 9RD", "town": "Wrexham", "phone": "01978 664060", "id": 37267, "region": "EA Wales" }, "geometry": { "type": "Point", "coordinates": [ -3.225195, 53.274549 ] } },
{ "type": "Feature", "properties": { "lat": 52.483139, "lon": -1.864255, "name": "D Harris t\/a Harris Salvage", "address": "Cyttir Lane<br> Bangor<br> Gwynedd", "postcode": "LL57 4DA", "town": "Bangor", "phone": "01248 370027", "id": 37278, "region": "EA Wales" }, "geometry": { "type": "Point", "coordinates": [ -1.864255, 52.483139 ] } },
{ "type": "Feature", "properties": { "lat": 52.800329, "lon": -1.640905, "name": "W D Neill", "address": "Helmydd<br> Trofarth<br> Abergele<br> Conwy", "postcode": "LL22 8BN", "town": "Abergele", "phone": "01492 650587", "id": 37298, "region": "EA Wales" }, "geometry": { "type": "Point", "coordinates": [ -1.640905, 52.800329 ] } },
{ "type": "Feature", "properties": { "lat": 52.57703, "lon": -2.031929, "name": "Sims Group UK Limited", "address": "Plot 1 Clarel Avenue<br> Nechells<br> Birmingham", "postcode": "B8 1AF", "town": "Birmingham", "phone": "0121 327 2315", "id": 40009, "region": "Midlands" }, "geometry": { "type": "Point", "coordinates": [ -2.031929, 52.57703 ] } },
{ "type": "Feature", "properties": { "lat": 52.666201, "lon": -1.92242, "name": "Sims Group UK Limited", "address": "Paget Street<br> Burton<br> Staffs", "postcode": "DE14 3TQ", "town": "Burton", "phone": "01283 568549", "id": 40016, "region": "Midlands" }, "geometry": { "type": "Point", "coordinates": [ -1.92242, 52.666201 ] } },
{ "type": "Feature", "properties": { "lat": 52.49174, "lon": -1.859639, "name": "European Metal Recycling Ltd", "address": "Bentley Road South<br> Darlaston<br> West Midlands", "postcode": "WS10 8LW", "town": "Walsall", "phone": "0121 568 6226", "id": 40041, "region": "Midlands" }, "geometry": { "type": "Point", "coordinates": [ -1.859639, 52.49174 ] } },
{ "type": "Feature", "properties": { "lat": 52.507583, "lon": -1.874675, "name": "A T Skip Hire Motor Salvage And Metals", "address": "Wharf Lane<br> Whitehorse Road<br> Burntwood<br> Staffs", "postcode": "WS7 8QY", "town": "Burntwood", "phone": "01543 675660", "id": 40068, "region": "Midlands" }, "geometry": { "type": "Point", "coordinates": [ -1.874675, 52.507583 ] } },
{ "type": "Feature", "properties": { "lat": 52.50647, "lon": -2.021606, "name": "H.W.Taroni (Metals) Ltd", "address": "Railway Sidings<br> Aston Church Road<br> Birmingham", "postcode": "B8 1QF", "town": "Birmingham", "phone": "0121 327 2959", "id": 40071, "region": "Midlands" }, "geometry": { "type": "Point", "coordinates": [ -2.021606, 52.50647 ] } },
{ "type": "Feature", "properties": { "lat": 52.62424, "lon": -1.401699, "name": "D Scarlett t\/a Hoppers Autobreak", "address": "222-224 Electric Avenue<br> Witton<br> Birmingham<br> West Midlands", "postcode": "B6 7EG", "town": "Birmingham", "phone": "0121 327 1241", "id": 40121, "region": "Midlands" }, "geometry": { "type": "Point", "coordinates": [ -1.401699, 52.62424 ] } },
{ "type": "Feature", "properties": { "lat": 52.625028, "lon": -1.612192, "name": "ABC Auto Salvage", "address": "8-10 Dudley Road East<br> Tividale<br>  Oldbury<br> West Midlands", "postcode": "B69 3HJ", "town": "Oldbury", "phone": "0121 5570800", "id": 40123, "region": "Midlands" }, "geometry": { "type": "Point", "coordinates": [ -1.612192, 52.625028 ] } },
{ "type": "Feature", "properties": { "lat": 52.480875, "lon": -1.856324, "name": "Flying Spares Ltd", "address": "1-4 Station Rd Industrial Est<br> Station Road<br> Market Bosworth", "postcode": "CV13 0PE", "town": "Market Bosworth", "phone": "01455 292949", "id": 40125, "region": "Midlands" }, "geometry": { "type": "Point", "coordinates": [ -1.856324, 52.480875 ] } },
{ "type": "Feature", "properties": { "lat": 52.411988, "lon": -1.936455, "name": "C P Motors", "address": "Pooley Lane<br> Polesworth<br> Staffordshire", "postcode": "B78 1JA", "town": "Polesworth", "phone": "01827 894983", "id": 40126, "region": "Midlands" }, "geometry": { "type": "Point", "coordinates": [ -1.936455, 52.411988 ] } },
{ "type": "Feature", "properties": { "lat": 52.495927, "lon": -1.971184, "name": "Finetask Ltd", "address": "Venetia Road<br> Bordesley Green<br> Birmingham", "postcode": "B9 4EN", "town": "Birmingham", "phone": null, "id": 40128, "region": "Midlands" }, "geometry": { "type": "Point", "coordinates": [ -1.971184, 52.495927 ] } },
{ "type": "Feature", "properties": { "lat": 52.702601, "lon": -1.36457, "name": "Viking Co Rover Spares Ltd", "address": "Eckersall Road<br> Kings Norton<br> Birmingham<br> West Midlands", "postcode": "B38 8SS", "town": "Birmingham", "phone": "0121 459 6866", "id": 40131, "region": "Midlands" }, "geometry": { "type": "Point", "coordinates": [ -1.36457, 52.702601 ] } },
{ "type": "Feature", "properties": { "lat": 52.501147, "lon": -1.864374, "name": "S Malhi T\/A 24\/7 Recovery", "address": "Bay 1<br> Alma Street<br> Smethwick<br> West Midlands", "postcode": "B66 2RL", "town": "Smethwick", "phone": "0121 555 8889", "id": 40133, "region": "Midlands" }, "geometry": { "type": "Point", "coordinates": [ -1.864374, 52.501147 ] } },
{ "type": "Feature", "properties": { "lat": 52.698988, "lon": -1.363271, "name": "Direct Car Spares Ltd", "address": "11C Moore Road<br> Ellistown<br> Leicestershire", "postcode": "LE67 1FB", "town": "Ibstock", "phone": "01530 262500", "id": 40134, "region": "Midlands" }, "geometry": { "type": "Point", "coordinates": [ -1.363271, 52.698988 ] } },
{ "type": "Feature", "properties": { "lat": 52.495902, "lon": -1.87863, "name": "P Taroni t\/a Taroni's of Birmingham", "address": "7-20 William Henry Street<br> Aston<br> Birmingham", "postcode": "B7 5ER", "town": "Birmingham", "phone": "0121 333 3330", "id": 40135, "region": "Midlands" }, "geometry": { "type": "Point", "coordinates": [ -1.87863, 52.495902 ] } },
{ "type": "Feature", "properties": { "lat": 52.501147, "lon": -1.864374, "name": "My B M Shop Ltd", "address": "Unit 7<br> Beveridge Lane<br> South Leicester Ind Est<br> Ellistown<br> Leics", "postcode": "LE67 1FB", "town": "Ibstock", "phone": "01530 262928", "id": 40137, "region": "Midlands" }, "geometry": { "type": "Point", "coordinates": [ -1.864374, 52.501147 ] } },
{ "type": "Feature", "properties": { "lat": 52.754994, "lon": -1.928161, "name": "M Rafih T\/A Sunrise Auto Spares", "address": "21-23 William Henry Street<br> Aston<br> Birmingham<br> West Midlands", "postcode": "B7 5ER", "town": "Birmingham", "phone": "0121 359 0765", "id": 40142, "region": "Midlands" }, "geometry": { "type": "Point", "coordinates": [ -1.928161, 52.754994 ] } },
{ "type": "Feature", "properties": { "lat": 52.632365, "lon": -1.922929, "name": "Birmingham Autobreak", "address": "3-5 William Henry Street<br> Aston<br> Birmingham", "postcode": "B7 5ER", "town": "Birmingham", "phone": "0121 3333381", "id": 40143, "region": "Midlands" }, "geometry": { "type": "Point", "coordinates": [ -1.922929, 52.632365 ] } },
{ "type": "Feature", "properties": { "lat": 52.83695, "lon": -2.037799, "name": "A J Round t\/a Just Affords", "address": "The Old Dairies<br> Redbrook Lane Ind Est<br> Rugeley<br> Staffs", "postcode": "WS15 1QU", "town": "Rugeley", "phone": "01889 582197", "id": 40144, "region": "Midlands" }, "geometry": { "type": "Point", "coordinates": [ -2.037799, 52.83695 ] } },
{ "type": "Feature", "properties": { "lat": 52.584474, "lon": -2.108875, "name": "J Ashby t\/a WW Commercial", "address": "Barracks Lane<br> Brownhills<br> Walsall", "postcode": "WS9 9DL", "town": "Brownhills", "phone": "01543 373758", "id": 40146, "region": "Midlands" }, "geometry": { "type": "Point", "coordinates": [ -2.108875, 52.584474 ] } },
{ "type": "Feature", "properties": { "lat": 52.721088, "lon": -1.838877, "name": "Jonathon Lloyd Commercial Salvage Ltd", "address": "Classic House Airfield Ind Est<br> Hixon<br> Stafford", "postcode": "ST18 0PF", "town": "Stafford", "phone": "01889 271276", "id": 40147, "region": "Midlands" }, "geometry": { "type": "Point", "coordinates": [ -1.838877, 52.721088 ] } },
{ "type": "Feature", "properties": { "lat": 52.568834, "lon": -2.034811, "name": "Swan Street Salvage Limited", "address": "Swan Street<br> Wolverhampton<br> West Midlands", "postcode": "WV1 3EE", "town": "Wolverhampton", "phone": "01902 351 993", "id": 40148, "region": "Midlands" }, "geometry": { "type": "Point", "coordinates": [ -2.034811, 52.568834 ] } },
{ "type": "Feature", "properties": { "lat": 52.605429, "lon": -2.003285, "name": "Beacon Metals Ltd", "address": "Wood End Lane<br> Fradley Park<br> Lichfield<br> Staffordshire", "postcode": "WS13 8EL", "town": "Lichfield", "phone": "01543 264679", "id": 40151, "region": "Midlands" }, "geometry": { "type": "Point", "coordinates": [ -2.003285, 52.605429 ] } },
{ "type": "Feature", "properties": { "lat": 52.499737, "lon": -1.873116, "name": "G C Rickards Ltd", "address": "1<br> Church Street<br> Moxley<br> Wednesbury<br> West Midlands", "postcode": "WS10 8RE", "town": "Wednesbury", "phone": "0121 556 0400", "id": 40152, "region": "Midlands" }, "geometry": { "type": "Point", "coordinates": [ -1.873116, 52.499737 ] } },
{ "type": "Feature", "properties": { "lat": 52.54778, "lon": -2.094609, "name": "J Farmer Trading", "address": "Unit 3 Deeley's Industrial Estate<br> Leamore Lane<br> Walsall", "postcode": "WS2 7BY", "town": "Walsall", "phone": "01902 731 966", "id": 40153, "region": "Midlands" }, "geometry": { "type": "Point", "coordinates": [ -2.094609, 52.54778 ] } },
{ "type": "Feature", "properties": { "lat": 52.690951, "lon": -2.033145, "name": "Equicar Ltd", "address": "Athena Works<br> 16 Meadow Lane<br> Coseley<br> Wolverhampton", "postcode": "WV14 9NQ", "town": "Wolverhampton", "phone": "01902 882883", "id": 40158, "region": "Midlands" }, "geometry": { "type": "Point", "coordinates": [ -2.033145, 52.690951 ] } },
{ "type": "Feature", "properties": { "lat": 52.476038, "lon": -1.771932, "name": "Michael Merrell", "address": "The Valley<br> Valley Road<br> Earlswood<br> Solihull", "postcode": "B94 6AA", "town": "Solihull", "phone": "01564 703669", "id": 40159, "region": "Midlands" }, "geometry": { "type": "Point", "coordinates": [ -1.771932, 52.476038 ] } },
{ "type": "Feature", "properties": { "lat": 52.476377, "lon": -1.859487, "name": "Cannock Auto Salvage Limited", "address": "Unit 1 Cannock Motor Village<br> Chaseside Drive<br> Cannock", "postcode": "WS11 7GD", "town": "Cannock", "phone": "01543 504494", "id": 40160, "region": "Midlands" }, "geometry": { "type": "Point", "coordinates": [ -1.859487, 52.476377 ] } },
{ "type": "Feature", "properties": { "lat": 52.480875, "lon": -1.856324, "name": "J Worral T\/A Court Auto Dismantlers", "address": "108 Mackadown Lane<br> Tile Cross<br> Birmingham", "postcode": "B33 0JD", "town": "Birmingham", "phone": "0121 7707272", "id": 40161, "region": "Midlands" }, "geometry": { "type": "Point", "coordinates": [ -1.856324, 52.480875 ] } },
{ "type": "Feature", "properties": { "lat": 52.50868, "lon": -1.975224, "name": "Crown Road Spares & Salvage", "address": "2 Crown Road<br> Bordesley Green<br> Birmingham<br> West Midlands", "postcode": "B9 4TT", "town": "Birmingham", "phone": "0121 766 6465", "id": 40162, "region": "Midlands" }, "geometry": { "type": "Point", "coordinates": [ -1.975224, 52.50868 ] } },
{ "type": "Feature", "properties": { "lat": 52.673724, "lon": -2.117546, "name": "Tariq Hussein T\/A Central Spares & Salvage", "address": "Bordley Green<br> Birmingham", "postcode": "B9 4TL", "town": "Birmingham", "phone": "0121 753 2921 or 07956 301371", "id": 40163, "region": "Midlands" }, "geometry": { "type": "Point", "coordinates": [ -2.117546, 52.673724 ] } },
{ "type": "Feature", "properties": { "lat": 52.527558, "lon": -1.841991, "name": "Keltruck Ltd", "address": "Kenrick Way<br> West Bromwich<br> West Midlands", "postcode": "B71 4JW", "town": "West Bromwich", "phone": "0121 5257000", "id": 40164, "region": "Midlands" }, "geometry": { "type": "Point", "coordinates": [ -1.841991, 52.527558 ] } },
{ "type": "Feature", "properties": { "lat": 52.502413, "lon": -1.978687, "name": "T S Russell", "address": "Unit 4B<br> Four Ashes Ind Est<br> Four Ashes<br> Wolverhampton", "postcode": "WV10 7DB", "town": "Wolverhampton", "phone": "01902 791716", "id": 40165, "region": "Midlands" }, "geometry": { "type": "Point", "coordinates": [ -1.978687, 52.502413 ] } },
{ "type": "Feature", "properties": { "lat": 52.511819, "lon": -1.873312, "name": "G Bailey t\/a Brewers of Erdington", "address": "50-52 Gravelly Lane<br> Erdington<br> Birmingham<br> West Midlands", "postcode": "B23 6UH", "town": "Birmingham", "phone": "0121 373 1321", "id": 40166, "region": "Midlands" }, "geometry": { "type": "Point", "coordinates": [ -1.873312, 52.511819 ] } },
{ "type": "Feature", "properties": { "lat": 52.487799, "lon": -1.8601, "name": "P Atkinson T\/A A&A Autobreakers", "address": "1-3 Roebuck Lane<br> Smethwick", "postcode": "B66 1BS", "town": "Smethwick", "phone": "0121 553 1944", "id": 40170, "region": "Midlands" }, "geometry": { "type": "Point", "coordinates": [ -1.8601, 52.487799 ] } },
{ "type": "Feature", "properties": { "lat": 53.031954, "lon": -2.23768, "name": "M Taj & S Ali T\/A Witton Motor Salvage\/ Bickford Motor Salvage", "address": "46 Bickford Road<br> Witton<br> Birmingham", "postcode": "B6 7EE", "town": "Birmingham", "phone": "0121 328 7661", "id": 40173, "region": "Midlands" }, "geometry": { "type": "Point", "coordinates": [ -2.23768, 53.031954 ] } },
{ "type": "Feature", "properties": { "lat": 52.495845, "lon": -1.944434, "name": "Scally's Car Breakers", "address": "Spentcroft Raod<br> Chesterton<br> Newcastle-under-Lyme<br> Staffs", "postcode": "ST5 9JB", "town": "Newcastle-u-Lyme", "phone": "01782 715517", "id": 40178, "region": "Midlands" }, "geometry": { "type": "Point", "coordinates": [ -1.944434, 52.495845 ] } },
{ "type": "Feature", "properties": { "lat": 52.66951, "lon": -1.971859, "name": "P Robbins t\/a Associated Commercial Dismantlers", "address": "High Park Wood<br> Alcester Road<br> Beoley<br> Worcs", "postcode": "B98 9TD", "town": "Beoley", "phone": "01564 742741", "id": 40180, "region": "Midlands" }, "geometry": { "type": "Point", "coordinates": [ -1.971859, 52.66951 ] } },
{ "type": "Feature", "properties": { "lat": 53.040705, "lon": -2.18387, "name": "C L Atkinson t\/a A + A Auto Dismantlers", "address": "1<br>4 Wellington Street<br> Smethwick", "postcode": "B66 2QF", "town": "Smethwick", "phone": "0121 5655359", "id": 40182, "region": "Midlands" }, "geometry": { "type": "Point", "coordinates": [ -2.18387, 53.040705 ] } },
{ "type": "Feature", "properties": { "lat": 52.678726, "lon": -2.027999, "name": "Midland VW LTD", "address": "Unit 21a Conduit Lane<br> Norton Canes<br> Cannock", "postcode": "WS11 9TJ", "town": "Cannock", "phone": "01543 495700", "id": 40183, "region": "Midlands" }, "geometry": { "type": "Point", "coordinates": [ -2.027999, 52.678726 ] } },
{ "type": "Feature", "properties": { "lat": 52.821483, "lon": -2.114223, "name": "M H Shah t\/a S N Autobreakers", "address": "Snyed Hill<br> Burslem<br> Stoke-on-Trent", "postcode": "ST6 2ED", "town": "Stoke-on-Trent", "phone": null, "id": 40185, "region": "Midlands" }, "geometry": { "type": "Point", "coordinates": [ -2.114223, 52.821483 ] } },
{ "type": "Feature", "properties": { "lat": 53.08514, "lon": -1.996289, "name": "John Craddock Limited", "address": "70-76 North Street<br> Bridgtown<br> Cannock", "postcode": "WS11 0AZ", "town": "Cannock", "phone": "01543 572134", "id": 40188, "region": "Midlands" }, "geometry": { "type": "Point", "coordinates": [ -1.996289, 53.08514 ] } },
{ "type": "Feature", "properties": { "lat": 53.024771, "lon": -1.965634, "name": "S Went trading as J&S Metals", "address": "Astonfields Industrial Estate<br> Drummond Road<br> Stafford", "postcode": "ST16 3HJ", "town": "Stafford", "phone": "01785 242058", "id": 40189, "region": "Midlands" }, "geometry": { "type": "Point", "coordinates": [ -1.965634, 53.024771 ] } },
{ "type": "Feature", "properties": { "lat": 52.5817, "lon": -2.10727, "name": "P Keates t\/a Pro Motorcycle Salvage", "address": "Unit 13<br> Riverside Works<br> Station Road<br> Cheddleton<br> Staffs", "postcode": "ST13 7EE", "town": "Cheddleton", "phone": "01538 361717", "id": 40192, "region": "Midlands" }, "geometry": { "type": "Point", "coordinates": [ -2.10727, 52.5817 ] } },
{ "type": "Feature", "properties": { "lat": 52.477451, "lon": -1.855287, "name": "Autoline Motors Ltd", "address": "The Colour Mill<br> Froghall<br> Stoke On Trent<br> Staffs", "postcode": "ST10 2HA", "town": "Stoke-on-Trent", "phone": "01538 754905", "id": 40193, "region": "Midlands" }, "geometry": { "type": "Point", "coordinates": [ -1.855287, 52.477451 ] } },
{ "type": "Feature", "properties": { "lat": 52.995035, "lon": -2.147184, "name": "Shinehill Ltd", "address": "Unit 3A Old Chillington Works<br> Hickman Avenue<br> Wolverhampton", "postcode": "WV1 2BT", "town": "Wolverhampton", "phone": "01902 451322", "id": 40200, "region": "Midlands" }, "geometry": { "type": "Point", "coordinates": [ -2.147184, 52.995035 ] } },
{ "type": "Feature", "properties": { "lat": 52.463165, "lon": -1.876116, "name": "M Ishpaq t\/a Frontier Volksworks", "address": "52 Cherrywood Road<br> Bordesley Green<br> Birmingham<br> West Midlands", "postcode": "B9 4UD", "town": "Birmingham", "phone": "0121 7665688", "id": 40208, "region": "Midlands" }, "geometry": { "type": "Point", "coordinates": [ -1.876116, 52.463165 ] } },
{ "type": "Feature", "properties": { "lat": 52.515672, "lon": -1.88033, "name": "New King Street Breakers Ltd", "address": "Royal Street<br> Fenton<br> Stoke on Trent<br> Staffs", "postcode": "ST4 3EU", "town": "Stoke-on-Trent", "phone": "01782 594743", "id": 40209, "region": "Midlands" }, "geometry": { "type": "Point", "coordinates": [ -1.88033, 52.515672 ] } },
{ "type": "Feature", "properties": { "lat": 52.54785, "lon": -2.01852, "name": "MSL Centre Limited", "address": "Unit 5<br> 400 Golden Hillock Road<br> Sparkbrook<br> Birmingham<br> West Midlands", "postcode": "B11 1AQ", "town": "Birmingham", "phone": null, "id": 40212, "region": "Midlands" }, "geometry": { "type": "Point", "coordinates": [ -2.01852, 52.54785 ] } },
{ "type": "Feature", "properties": { "lat": 52.595663, "lon": -2.049931, "name": "A Guy T\/A A-S-G Autocentre", "address": "21 Atlas Estate<br> Brookvale Road<br> Birmingham", "postcode": "B6 7EX", "town": "Birmingham", "phone": "0121 356055", "id": 40219, "region": "Midlands" }, "geometry": { "type": "Point", "coordinates": [ -2.049931, 52.595663 ] } },
{ "type": "Feature", "properties": { "lat": 52.566965, "lon": -2.034454, "name": "Midland Citroen & Peugeot", "address": "Plots 2 & 3 Perry Street<br> Wednesbury<br> West Midlands", "postcode": "WS10 0AZ", "town": "Wednesbury", "phone": "0121 502 0502", "id": 40225, "region": "Midlands" }, "geometry": { "type": "Point", "coordinates": [ -2.034454, 52.566965 ] } },
{ "type": "Feature", "properties": { "lat": 52.95248, "lon": -1.958197, "name": "A2B Vauxhall Spares LTD", "address": "6 Ashmore Lake Way<br> Willenhall<br> Wolverhampton", "postcode": "WV12 4LF", "town": "Wolverhampton", "phone": "01902 633646", "id": 40228, "region": "Midlands" }, "geometry": { "type": "Point", "coordinates": [ -1.958197, 52.95248 ] } },
{ "type": "Feature", "properties": { "lat": 53.032801, "lon": -2.26639, "name": "Best of British Car Spares", "address": "265 Darlaston Road<br> Darlaston<br> West Midlands", "postcode": "WS10 7TG", "town": "Walsall", "phone": null, "id": 40231, "region": "Midlands" }, "geometry": { "type": "Point", "coordinates": [ -2.26639, 53.032801 ] } },
{ "type": "Feature", "properties": { "lat": 52.840262, "lon": -1.68054, "name": "Robert Coates Ltd", "address": "Coregreen Yard<br> Gorsty Hill Road<br> Tean<br> Staffs", "postcode": "ST10 4EL", "town": "Tean", "phone": "01538 722691", "id": 40232, "region": "Midlands" }, "geometry": { "type": "Point", "coordinates": [ -1.68054, 52.840262 ] } },
{ "type": "Feature", "properties": { "lat": 53.008735, "lon": -2.159611, "name": "Armstrong Vehicle Recycling Ltd", "address": "adj to Rowhurst Close Ind Est<br> Apedale Road<br> Chesterton<br> Newcastle<br> Staffs", "postcode": "ST5 6BL", "town": "Newcastle-u-Lyme", "phone": "07831 703819", "id": 40235, "region": "Midlands" }, "geometry": { "type": "Point", "coordinates": [ -2.159611, 53.008735 ] } },
{ "type": "Feature", "properties": { "lat": 52.62121, "lon": -1.717499, "name": "SS Auto Salvage", "address": "Chapel Lane<br> Anslow<br> Burton On Trent<br> Staffs", "postcode": "DE13 9QA", "town": "Burton On Trent", "phone": "01283 562050", "id": 40249, "region": "Midlands" }, "geometry": { "type": "Point", "coordinates": [ -1.717499, 52.62121 ] } },
{ "type": "Feature", "properties": { "lat": 52.81998, "lon": -2.118214, "name": "J.D.Commercials Limited", "address": "Elswick Road<br> Fenton Industrial Estate<br>  Fenton<br> Stoke on Trent", "postcode": "ST4 2PZ", "town": "Stoke-on-Trent", "phone": "01782 745900", "id": 40253, "region": "Midlands" }, "geometry": { "type": "Point", "coordinates": [ -2.118214, 52.81998 ] } },
{ "type": "Feature", "properties": { "lat": 52.501192, "lon": -2.011479, "name": "J Watson", "address": "Common Road<br> Stafford", "postcode": "ST16 3DG", "town": "Stafford", "phone": "01785 220111", "id": 40256, "region": "Midlands" }, "geometry": { "type": "Point", "coordinates": [ -2.011479, 52.501192 ] } },
{ "type": "Feature", "properties": { "lat": 52.51286, "lon": -2.022834, "name": "Reservoir Motors Ltd", "address": "High Park Wood<br> Alcester Road<br> Beoley<br> Worcestershire", "postcode": "B98 9TD", "town": "Beoley", "phone": "01527 527 068", "id": 40258, "region": "Midlands" }, "geometry": { "type": "Point", "coordinates": [ -2.022834, 52.51286 ] } },
{ "type": "Feature", "properties": { "lat": 53.038712, "lon": -2.208905, "name": "Midland BM Ltd", "address": "Stone Street<br> Oldbury<br> West Midlands", "postcode": "B69 4JL", "town": "Oldbury", "phone": "0121 544 9444", "id": 40265, "region": "Midlands" }, "geometry": { "type": "Point", "coordinates": [ -2.208905, 53.038712 ] } },
{ "type": "Feature", "properties": { "lat": 52.978751, "lon": -2.133468, "name": "Oldbury Motor Salvage and Spares", "address": "Union Road<br> Oldbury<br> West Midlands", "postcode": "B69 3EX", "town": "Oldbury", "phone": "07976 954562 or 07949 720888", "id": 40269, "region": "Midlands" }, "geometry": { "type": "Point", "coordinates": [ -2.133468, 52.978751 ] } },
{ "type": "Feature", "properties": { "lat": 52.533725, "lon": -1.897089, "name": "Ivan Parker", "address": "Units 8 & 9 Milvale Street<br> Middleport<br> Burslem<br> Stoke on Trent", "postcode": "ST6 3NT", "town": "Stoke-on-Trent", "phone": "01782 833412", "id": 40270, "region": "Midlands" }, "geometry": { "type": "Point", "coordinates": [ -1.897089, 52.533725 ] } },
{ "type": "Feature", "properties": { "lat": 52.498575, "lon": -1.962179, "name": "J Keeling T\/A Motor Clinic", "address": "54 Trentham Road<br> Longton<br> Stoke-on-Trent<br> Staffs", "postcode": "ST3 4DJ", "town": "Stoke-on-Trent", "phone": "01782 332923", "id": 40283, "region": "Midlands" }, "geometry": { "type": "Point", "coordinates": [ -1.962179, 52.498575 ] } },
{ "type": "Feature", "properties": { "lat": 52.490905, "lon": -1.862184, "name": "Great Barr Auto Recovery Ltd", "address": "Paper Mill End<br> Off Aldridge Road<br> Great Barr<br> Birmingham", "postcode": "B44 8NH", "town": "Birmingham", "phone": null, "id": 40284, "region": "Midlands" }, "geometry": { "type": "Point", "coordinates": [ -1.862184, 52.490905 ] } },
{ "type": "Feature", "properties": { "lat": 52.526023, "lon": -2.018989, "name": "M Simcox & K Arnott t\/a M&K Salvage", "address": "Unit 5<br> Bridge Trading Estate<br> Bridge Street North<br> Smethwick", "postcode": "B66 2BZ", "town": "Smethwick", "phone": null, "id": 40293, "region": "Midlands" }, "geometry": { "type": "Point", "coordinates": [ -2.018989, 52.526023 ] } },
{ "type": "Feature", "properties": { "lat": 52.49306, "lon": -1.940149, "name": "J Goley t\/a John Goley Auto Salvage", "address": "2-10 Cranby Street<br> Saltley<br> Birmingham<br> West Midlands", "postcode": "B8 1JL", "town": "Birmingham", "phone": "0121 326 6380", "id": 40299, "region": "Midlands" }, "geometry": { "type": "Point", "coordinates": [ -1.940149, 52.49306 ] } },
{ "type": "Feature", "properties": { "lat": 52.477935, "lon": -1.856606, "name": "M J Turbutt t\/a CMS", "address": "127 Phoenix Street<br> Great Bridge<br> West Bromwich<br> West Midlands", "postcode": "B70 0AQ", "town": "West Bromwich", "phone": "0121 556 2529", "id": 40301, "region": "Midlands" }, "geometry": { "type": "Point", "coordinates": [ -1.856606, 52.477935 ] } },
{ "type": "Feature", "properties": { "lat": 52.568531, "lon": -2.114881, "name": "Jap Auto Parts", "address": "Units 1-3<br> Wellington St<br> Winson Green<br> B'ham", "postcode": "B18 4NN", "town": "Birmingham", "phone": "0121 772 1302", "id": 40311, "region": "Midlands" }, "geometry": { "type": "Point", "coordinates": [ -2.114881, 52.568531 ] } },
{ "type": "Feature", "properties": { "lat": 52.566775, "lon": -2.074679, "name": "Rajab Zafari t\/a Jap Auto Parts", "address": "8 Raleigh Road<br> Bordesley Green<br> Birmingham", "postcode": "B9 4TL", "town": "Birmingham", "phone": null, "id": 40312, "region": "Midlands" }, "geometry": { "type": "Point", "coordinates": [ -2.074679, 52.566775 ] } },
{ "type": "Feature", "properties": { "lat": 52.4631, "lon": -1.869229, "name": "European Metal Recycling Ltd", "address": "Parkfield Works<br> Bilston Road<br> Wolverhampton", "postcode": "WV2 2JE", "town": "Wolverhampton", "phone": null, "id": 40314, "region": "Midlands" }, "geometry": { "type": "Point", "coordinates": [ -1.869229, 52.4631 ] } },
{ "type": "Feature", "properties": { "lat": 52.493052, "lon": -1.940157, "name": "J Singh t\/a Joe'sï¿½Dismantlers", "address": "Unit 7 B<br> Withy Road<br> Ladymoor<br> Bilston<br> West Midlands", "postcode": "WV14 0RX", "town": "Bilston", "phone": null, "id": 40317, "region": "Midlands" }, "geometry": { "type": "Point", "coordinates": [ -1.940157, 52.493052 ] } },
{ "type": "Feature", "properties": { "lat": 52.486205, "lon": -1.862444, "name": "Parts 4 Cars", "address": "1A The Railway Sidings<br> Anderon<br> Birmingham", "postcode": "B11 1TG", "town": "Birmingham", "phone": "1217667276", "id": 40319, "region": "Midlands" }, "geometry": { "type": "Point", "coordinates": [ -1.862444, 52.486205 ] } },
{ "type": "Feature", "properties": { "lat": 52.77412, "lon": -1.552209, "name": "J Sulaiman t\/a Dalingill Auto Spares", "address": "151-153 Wellington Street<br> Winson Green<br> Birmingham", "postcode": "B18 4NN", "town": "Birmingham", "phone": "07886 338590", "id": 40321, "region": "Midlands" }, "geometry": { "type": "Point", "coordinates": [ -1.552209, 52.77412 ] } },
{ "type": "Feature", "properties": { "lat": 52.80082, "lon": -2.162831, "name": "A Ur Rehman & A Ali t\/a Heartlands Spares", "address": "Unit 1<br> Adderley Trading Estate<br> Adderley Road<br> Saltley<br> Birmingham", "postcode": "B8 1AN", "town": "Birmingham", "phone": null, "id": 40329, "region": "Midlands" }, "geometry": { "type": "Point", "coordinates": [ -2.162831, 52.80082 ] } },
{ "type": "Feature", "properties": { "lat": 53.040886, "lon": -2.21368, "name": "Donald Ward Ltd", "address": "Moira Road<br> Woodville<br> Swadlincote<br> Derbyshire", "postcode": "DE11 8DG", "town": "Swadlincote", "phone": "01283 217192", "id": 42157, "region": "Midlands" }, "geometry": { "type": "Point", "coordinates": [ -2.21368, 53.040886 ] } },
{ "type": "Feature", "properties": { "lat": 53.09934, "lon": -2.032229, "name": "Moving Media Cor Ltd T\/A Auto Reclaim", "address": "Tattons Yard<br> Boons Ind Estate<br> Derrington<br> Stafford<br> Staffs", "postcode": "ST18 9NH", "town": "Stafford", "phone": "01785 222552", "id": 42169, "region": "Midlands" }, "geometry": { "type": "Point", "coordinates": [ -2.032229, 53.09934 ] } },
{ "type": "Feature", "properties": { "lat": 52.470944, "lon": -2.033008, "name": "F. Mc Guinness & Sons", "address": "Fowlea Brook<br> Longport<br> Stoke-on-Trent", "postcode": "ST6 4NL", "town": "Stoke-on-Trent", "phone": "01782 817424", "id": 42170, "region": "Midlands" }, "geometry": { "type": "Point", "coordinates": [ -2.033008, 52.470944 ] } },
{ "type": "Feature", "properties": { "lat": 52.87929, "lon": -2.275109, "name": "R Bestwick & Sons", "address": "The Scrapyard<br> Barnfields Industrial Estate<br> Barnfield Road<br> Leek<br> Staffs", "postcode": "ST13 5QG", "town": "Leek", "phone": "01538 383888", "id": 42177, "region": "Midlands" }, "geometry": { "type": "Point", "coordinates": [ -2.275109, 52.87929 ] } },
{ "type": "Feature", "properties": { "lat": 52.47863, "lon": -1.908449, "name": "Blackheath Car & Commercial Breaker Ltd", "address": "Nimmings Road<br> Blackheath<br> Halesowen", "postcode": "B62 9JE", "town": "Halesowen", "phone": "0121 561 4909", "id": 42195, "region": "Midlands" }, "geometry": { "type": "Point", "coordinates": [ -1.908449, 52.47863 ] } },
{ "type": "Feature", "properties": { "lat": 52.60605, "lon": -2.012024, "name": "Leese Bros Eccleshall Ltd", "address": "Platt Bridge<br> Shaws Lane<br> Eccleshall<br> Stafford<br> Staffs", "postcode": "ST21 6EN", "town": "Stafford", "phone": "01785 850 376", "id": 42228, "region": "Midlands" }, "geometry": { "type": "Point", "coordinates": [ -2.012024, 52.60605 ] } },
{ "type": "Feature", "properties": { "lat": 52.564435, "lon": -2.093559, "name": "Slater Brothers Ltd", "address": "20 Oughton Road<br> Highgate<br> Birmingham", "postcode": "B12 0DF", "town": "Birmingham", "phone": "0121 4405665", "id": 42251, "region": "Midlands" }, "geometry": { "type": "Point", "coordinates": [ -2.093559, 52.564435 ] } },
{ "type": "Feature", "properties": { "lat": 52.55762, "lon": -2.085714, "name": "Green Lane Motor Salvage Limited", "address": "Fryers Road<br> Leamore<br> Walsall<br> West Midlands", "postcode": "WS2 7LZ", "town": "Walsall", "phone": "01922 479948", "id": 42253, "region": "Midlands" }, "geometry": { "type": "Point", "coordinates": [ -2.085714, 52.55762 ] } },
{ "type": "Feature", "properties": { "lat": 52.483481, "lon": -1.866209, "name": "Motor Salvage (Fighting Cocks) Ltd", "address": "Tarmac Road<br> Wolverhampton", "postcode": "WV4 6JU", "town": "Wolverhampton", "phone": "01902 403525", "id": 42257, "region": "Midlands" }, "geometry": { "type": "Point", "coordinates": [ -1.866209, 52.483481 ] } },
{ "type": "Feature", "properties": { "lat": 53.146025, "lon": -1.979909, "name": "T L Harvey", "address": "Unit 8 Withy Road<br> Bilston<br> Wolverhampton", "postcode": "WV14 0RX", "town": "Wolverhampton", "phone": "0121 5266391", "id": 42266, "region": "Midlands" }, "geometry": { "type": "Point", "coordinates": [ -1.979909, 53.146025 ] } },
{ "type": "Feature", "properties": { "lat": 53.04333, "lon": -2.186179, "name": "European Metal Recycling Ltd", "address": "Clarel Avenue<br> Landor Street<br> Nechells<br> Birmingham", "postcode": "B8 1AE", "town": "Birmingham", "phone": "0121 322 2399", "id": 42299, "region": "Midlands" }, "geometry": { "type": "Point", "coordinates": [ -2.186179, 53.04333 ] } },
{ "type": "Feature", "properties": { "lat": 52.900824, "lon": -2.143473, "name": "KJ Baines Commercials", "address": "Upperhulme Mill<br> Buxton Road<br> Upper Hulme<br> Leek", "postcode": "ST13 8TY", "town": "Leek", "phone": "01538 300220", "id": 42335, "region": "Midlands" }, "geometry": { "type": "Point", "coordinates": [ -2.143473, 52.900824 ] } },
{ "type": "Feature", "properties": { "lat": 52.592479, "lon": -2.040662, "name": "L.T.R Recovery Services 1994", "address": "Florida Close<br> Hot Lane Ind Est<br> Burslem<br> Stoke On Trent", "postcode": "ST6 2DJ", "town": "Stoke-on-Trent", "phone": "01782 815736", "id": 42366, "region": "Midlands" }, "geometry": { "type": "Point", "coordinates": [ -2.040662, 52.592479 ] } },
{ "type": "Feature", "properties": { "lat": 52.572052, "lon": -2.029315, "name": "F Watson & Son", "address": "Rose Cottage<br> Lichfield Road<br> Little Stoke<br> Stone<br> Staffordshire", "postcode": "ST15 8QU", "town": "Stone", "phone": "01785 812 953", "id": 42378, "region": "Midlands" }, "geometry": { "type": "Point", "coordinates": [ -2.029315, 52.572052 ] } },
{ "type": "Feature", "properties": { "lat": 52.995318, "lon": -2.145961, "name": "Autobits", "address": "Clarkes Lane<br> Willenhall<br> West Midlands", "postcode": "WV13 1HT", "town": "Willenhall", "phone": "01902 605635", "id": 42418, "region": "Midlands" }, "geometry": { "type": "Point", "coordinates": [ -2.145961, 52.995318 ] } },
{ "type": "Feature", "properties": { "lat": 52.77412, "lon": -1.552209, "name": "T L Harvey Ltd", "address": "The Flatts<br> Whitworth Close<br> Darlaston<br> Wednesbury", "postcode": "WS10 8LJ", "town": "Wednesbury", "phone": "0121 568 7828", "id": 42477, "region": "Midlands" }, "geometry": { "type": "Point", "coordinates": [ -1.552209, 52.77412 ] } },
{ "type": "Feature", "properties": { "lat": 52.483481, "lon": -1.866209, "name": "Potteries Demolition Co Ltd", "address": "Burnham Street<br> Fenton<br> Stoke-on-Trent", "postcode": "ST4 3EZ", "town": "Stoke-on-Trent", "phone": "01782 313522", "id": 42485, "region": "Midlands" }, "geometry": { "type": "Point", "coordinates": [ -1.866209, 52.483481 ] } },
{ "type": "Feature", "properties": { "lat": 52.433694, "lon": -1.918747, "name": "Kirkvale Ltd", "address": "End Of The Line<br> Pool Street<br> Church Gresley<br> Swadlincote<br> Derbys", "postcode": "DE11 8EE", "town": "Swadlincote", "phone": "01283 210101", "id": 42489, "region": "Midlands" }, "geometry": { "type": "Point", "coordinates": [ -1.918747, 52.433694 ] } },
{ "type": "Feature", "properties": { "lat": 52.49174, "lon": -1.859639, "name": "P Sparrow t\/a Stirchley Spares", "address": "1137 Pershore Road<br> Stirchley<br> Birmingham<br> West Midlands", "postcode": "B30 2YJ", "town": "Birmingham", "phone": "0121 472 0525", "id": 42515, "region": "Midlands" }, "geometry": { "type": "Point", "coordinates": [ -1.859639, 52.49174 ] } },
{ "type": "Feature", "properties": { "lat": 52.51773, "lon": -1.739654, "name": "Copes of Earlswood", "address": "Juggins Lane<br> Earlswood<br> Solihull<br> West Midlands", "postcode": "B94 5LL", "town": "Solihull", "phone": "01564 703414", "id": 42529, "region": "Midlands" }, "geometry": { "type": "Point", "coordinates": [ -1.739654, 52.51773 ] } },
{ "type": "Feature", "properties": { "lat": 52.98835, "lon": -1.987279, "name": "HUS Autos", "address": "Plot 5 Clarel Avenue<br> Nechells<br> Birmingham", "postcode": "B8 1AF", "town": "Birmingham", "phone": "0121 327 1821", "id": 42532, "region": "Midlands" }, "geometry": { "type": "Point", "coordinates": [ -1.987279, 52.98835 ] } },
{ "type": "Feature", "properties": { "lat": 53.00403, "lon": -2.287669, "name": "RP Howell", "address": "Brookhouse Ind Estate<br> Plot L Brookhouse Way<br> Cheadle<br> Stoke On Trent", "postcode": "ST10 1SR", "town": "Stoke-on-Trent", "phone": "01538 754837", "id": 42556, "region": "Midlands" }, "geometry": { "type": "Point", "coordinates": [ -2.287669, 53.00403 ] } },
{ "type": "Feature", "properties": { "lat": 52.608805, "lon": -1.676825, "name": "Portway Motor Services Ltd", "address": "Old Alcester Road<br> Portway<br> Alvechurch", "postcode": "B48 7HX", "town": "Alvechurch", "phone": "01564 822116", "id": 42569, "region": "Midlands" }, "geometry": { "type": "Point", "coordinates": [ -1.676825, 52.608805 ] } },
{ "type": "Feature", "properties": { "lat": 52.500179, "lon": -1.94816, "name": "J.M. Hampton & N.W. Hampton T\/A Hamptons", "address": "Field House<br> Keele Road<br> Newcastle<br> Staffs", "postcode": "ST5 5AA", "town": "Newcastle-u-Lyme", "phone": "01782 614456", "id": 42591, "region": "Midlands" }, "geometry": { "type": "Point", "coordinates": [ -1.94816, 52.500179 ] } },
{ "type": "Feature", "properties": { "lat": 53.0297, "lon": -2.175069, "name": "B Asson & E Tyers T\/A Mainly Ford Parts", "address": "Units 23<br> Two Gate Ind Est<br> Watling Street<br> Two Gates<br> Tamworth<br> Staffs", "postcode": "B77 5AE", "town": "Tamworth", "phone": "01827 260066", "id": 42595, "region": "Midlands" }, "geometry": { "type": "Point", "coordinates": [ -2.175069, 53.0297 ] } },
{ "type": "Feature", "properties": { "lat": 52.568785, "lon": -1.683309, "name": "Sims Group UK Limited", "address": "Unit 60 Anne Road<br> Smethwick<br> West Midlands", "postcode": "B66 2NZ", "town": "Smethwick", "phone": "0121 5555476", "id": 42608, "region": "Midlands" }, "geometry": { "type": "Point", "coordinates": [ -1.683309, 52.568785 ] } },
{ "type": "Feature", "properties": { "lat": 52.64699, "lon": -1.932874, "name": "New Haden Metals Ltd", "address": "Brookhouse Industrial Estate<br> Cheadle<br> Stoke on Trent", "postcode": "ST10 1PN", "town": "Stoke-on-Trent", "phone": "01538 753640", "id": 42609, "region": "Midlands" }, "geometry": { "type": "Point", "coordinates": [ -1.932874, 52.64699 ] } },
{ "type": "Feature", "properties": { "lat": 52.495927, "lon": -1.971184, "name": "European Metal Recycling LTD", "address": "Trinity Road<br> Kingsbury<br> Tamworth", "postcode": "B78 2LB", "town": "Tamworth", "phone": "01827 872281", "id": 42614, "region": "Midlands" }, "geometry": { "type": "Point", "coordinates": [ -1.971184, 52.495927 ] } },
{ "type": "Feature", "properties": { "lat": 52.62477, "lon": -1.661954, "name": "Brownhills Motorspares", "address": "Gatehouse Trading Estate<br> Lichfield Road<br> Brownhills", "postcode": "WS8 6JZ", "town": "Brownhills", "phone": "01543 377277", "id": 42625, "region": "Midlands" }, "geometry": { "type": "Point", "coordinates": [ -1.661954, 52.62477 ] } },
{ "type": "Feature", "properties": { "lat": 53.033167, "lon": -1.186399, "name": "European Metal Recycling Ltd", "address": "Hill Works<br> Downing Street<br> Smethwick<br> West Midlands", "postcode": "B66 2PG", "town": "Smethwick", "phone": "0121 5584431", "id": 42634, "region": "Midlands" }, "geometry": { "type": "Point", "coordinates": [ -1.186399, 53.033167 ] } },
{ "type": "Feature", "properties": { "lat": 53.023782, "lon": -1.064693, "name": "Wm.M.Briers & Son Ltd", "address": "Anchor Sidings<br> Glascote Road<br> Tamworth", "postcode": "B77 2AN", "town": "Tamworth", "phone": "01827 62668", "id": 42648, "region": "Midlands" }, "geometry": { "type": "Point", "coordinates": [ -1.064693, 53.023782 ] } },
{ "type": "Feature", "properties": { "lat": 52.95055, "lon": -1.122289, "name": "Woodys Auto Dismantlers", "address": "15a Wigwam Lane<br> Hucknall<br> Notts", "postcode": "NG15 7TA", "town": "Hucknall", "phone": "0115 9639550", "id": 43016, "region": "Midlands" }, "geometry": { "type": "Point", "coordinates": [ -1.122289, 52.95055 ] } },
{ "type": "Feature", "properties": { "lat": 53.00069, "lon": -1.064019, "name": "Podders Nottingham Ltd", "address": "Bank Hill<br> Woodborough<br> Nottingham", "postcode": "NG14 6EF", "town": "Nottingham", "phone": "0115 9265452 \/ 9209534", "id": 43032, "region": "Midlands" }, "geometry": { "type": "Point", "coordinates": [ -1.064019, 53.00069 ] } },
{ "type": "Feature", "properties": { "lat": 53.077422, "lon": -0.816615, "name": "Lady Bay Auto Salvage", "address": "Colwick Road<br> Nottingham", "postcode": "NG2 4BG", "town": "Nottingham", "phone": "0115 9507270", "id": 43042, "region": "Midlands" }, "geometry": { "type": "Point", "coordinates": [ -0.816615, 53.077422 ] } },
{ "type": "Feature", "properties": { "lat": 53.080543, "lon": -0.807674, "name": "Spring Lane Motor Spares", "address": "Rear of Windyridge<br> Spring Lane<br> Lambley<br> Nottingham", "postcode": "NG4 4PE", "town": "Nottingham", "phone": "0115 9268750", "id": 43059, "region": "Midlands" }, "geometry": { "type": "Point", "coordinates": [ -0.807674, 53.080543 ] } },
{ "type": "Feature", "properties": { "lat": 53.524391, "lon": -1.130565, "name": "T.W. Crowden and Daughter Limited", "address": "Tolney Road<br> Newark<br> Nottinghamshire", "postcode": "NG21 1DA", "town": "Newark", "phone": "01636 703257", "id": 43062, "region": "Midlands" }, "geometry": { "type": "Point", "coordinates": [ -1.130565, 53.524391 ] } },
{ "type": "Feature", "properties": { "lat": 53.57493, "lon": -1.020184, "name": "Bradford Moor (Iron & Steel) Company Limited", "address": "Cow Lane<br> Newark<br> Nottinghamshire", "postcode": "NG24 1HQ", "town": "Newark", "phone": "01636 703645", "id": 43068, "region": "Midlands" }, "geometry": { "type": "Point", "coordinates": [ -1.020184, 53.57493 ] } },
{ "type": "Feature", "properties": { "lat": 53.600601, "lon": -0.631645, "name": "Morris Co. (Handlers) Ltd", "address": "Bankwood Lane<br> Rossington<br> Doncaster", "postcode": "DN11 0PS", "town": "Doncaster", "phone": "01302 864044", "id": 43077, "region": "Midlands" }, "geometry": { "type": "Point", "coordinates": [ -0.631645, 53.600601 ] } },
{ "type": "Feature", "properties": { "lat": 53.600601, "lon": -0.631645, "name": "Pete Thompson Motor Dismantlers", "address": "Bootham Lane Ind Est<br> Bootham Lane<br> Dunscroft<br> Doncaster", "postcode": "DN7 4JU", "town": "Doncaster", "phone": "01302 842690", "id": 43083, "region": "Midlands" }, "geometry": { "type": "Point", "coordinates": [ -0.631645, 53.600601 ] } },
{ "type": "Feature", "properties": { "lat": 53.59271, "lon": -0.642009, "name": "Kevin and David Thompson", "address": "Thompson Metals<br> Winterton Road<br> Scunthorpe<br> North Lincs", "postcode": "DN15 0BA", "town": "Scunthorpe", "phone": "01724 871971", "id": 43091, "region": "Midlands" }, "geometry": { "type": "Point", "coordinates": [ -0.642009, 53.59271 ] } },
{ "type": "Feature", "properties": { "lat": 53.55523, "lon": -0.671329, "name": "A Carrington T\/A AC Autos", "address": "Pit Bottom<br> Winterton Road<br> Scunthorpe<br> North Lincolnshire", "postcode": "DN15 0BA", "town": "Scunthorpe", "phone": "01724 862573", "id": 43100, "region": "Midlands" }, "geometry": { "type": "Point", "coordinates": [ -0.671329, 53.55523 ] } },
{ "type": "Feature", "properties": { "lat": 53.583806, "lon": -0.632695, "name": "G W Eva t\/a Queensway Metal Co", "address": "10 High Street<br> Scunthorpe<br> North Lincolnshire", "postcode": "DN15 6UH", "town": "Scunthorpe", "phone": "01724 844213", "id": 43103, "region": "Midlands" }, "geometry": { "type": "Point", "coordinates": [ -0.632695, 53.583806 ] } },
{ "type": "Feature", "properties": { "lat": 53.07509, "lon": -0.81618, "name": "Richard Colin Edley", "address": "Poplar Tree View<br> 3\/6 Scotter Road<br> Bottesford<br> Scunthorpe", "postcode": "DN17 2BT", "town": "Scunthorpe", "phone": "01724 280915", "id": 43104, "region": "Midlands" }, "geometry": { "type": "Point", "coordinates": [ -0.81618, 53.07509 ] } },
{ "type": "Feature", "properties": { "lat": 53.230734, "lon": -0.72828, "name": "LAS Metals Ltd", "address": "5-7 Banbury Road<br> Scunthorpe<br> N Lincolnshire", "postcode": "DN16 1UL", "town": "Scunthorpe", "phone": "01724 844244", "id": 43105, "region": "Midlands" }, "geometry": { "type": "Point", "coordinates": [ -0.72828, 53.230734 ] } },
{ "type": "Feature", "properties": { "lat": 53.106485, "lon": -1.255454, "name": "Environmental Specialist (Beverley) Ltd", "address": "Lakeside<br> Clifton Lane<br> Wigsley Wood<br> Newark<br> Notts", "postcode": "NG23 7DQ", "town": "Newark", "phone": "01522 778 261", "id": 43149, "region": "Midlands" }, "geometry": { "type": "Point", "coordinates": [ -1.255454, 53.106485 ] } },
{ "type": "Feature", "properties": { "lat": 53.165208, "lon": -1.183439, "name": "Mark Hill Salvage", "address": "Unit 3 Southwell Lane Ind Est<br> Summit Close<br> Kirkby-in-Ashfield<br> Nottingham", "postcode": "NG17 8GJ", "town": "Kirkby-in-Ashfield", "phone": "01623 756286", "id": 43157, "region": "Midlands" }, "geometry": { "type": "Point", "coordinates": [ -1.183439, 53.165208 ] } },
{ "type": "Feature", "properties": { "lat": 53.068465, "lon": -1.416059, "name": "Autochoppers", "address": "Old Mill Lane<br> Mansfield Woodhouse<br> Mansfield<br> Notts", "postcode": "NG19 9AL", "town": "Mansfield", "phone": "01623 628128", "id": 43162, "region": "Midlands" }, "geometry": { "type": "Point", "coordinates": [ -1.416059, 53.068465 ] } },
{ "type": "Feature", "properties": { "lat": 52.919375, "lon": -1.405248, "name": "R D Geeson (Derby) Limited", "address": "Asher Lane<br> Ripley<br> Derbyshire", "postcode": "DE5 3RD", "town": "Ripley", "phone": "01773 743396 07767 238340", "id": 43237, "region": "Midlands" }, "geometry": { "type": "Point", "coordinates": [ -1.405248, 52.919375 ] } },
{ "type": "Feature", "properties": { "lat": 52.914703, "lon": -1.464195, "name": "Albert Looms", "address": "Megaloughton Lane<br> Spondon<br> Derby", "postcode": "DE217ND", "town": "Derby", "phone": "01332 673663", "id": 43264, "region": "Midlands" }, "geometry": { "type": "Point", "coordinates": [ -1.464195, 52.914703 ] } },
{ "type": "Feature", "properties": { "lat": 52.780979, "lon": -1.214873, "name": "Sims Group UK Limited", "address": "PO Box 21<br> Mansfield Road<br> Derby<br> Derbyshire", "postcode": "DE21 4BL", "town": "Derby", "phone": "01332 361721", "id": 43275, "region": "Midlands" }, "geometry": { "type": "Point", "coordinates": [ -1.214873, 52.780979 ] } },
{ "type": "Feature", "properties": { "lat": 52.770698, "lon": -1.200658, "name": "R & Z Autosalvage", "address": "Pavillion Way<br> Off Jubilee Drive<br> Loughborough<br> Leics", "postcode": "LE11 56W", "town": "Loughborough", "phone": "01509 237227", "id": 43278, "region": "Midlands" }, "geometry": { "type": "Point", "coordinates": [ -1.200658, 52.770698 ] } },
{ "type": "Feature", "properties": { "lat": 52.562885, "lon": -1.316222, "name": "TBD Morris Environmental", "address": "Moor Lane<br> Loughborough<br> Leics", "postcode": "LE11 1ST", "town": "Loughborough", "phone": null, "id": 43291, "region": "Midlands" }, "geometry": { "type": "Point", "coordinates": [ -1.316222, 52.562885 ] } },
{ "type": "Feature", "properties": { "lat": 52.65314, "lon": -1.128669, "name": "Barrie Mills Motor Salvage", "address": "Station Yard<br> Elmesthorpe<br> Earl Shilton<br> Leicester", "postcode": "LE97SG", "town": "Leicester", "phone": "01455 842506", "id": 43318, "region": "Midlands" }, "geometry": { "type": "Point", "coordinates": [ -1.128669, 52.65314 ] } },
{ "type": "Feature", "properties": { "lat": 52.661645, "lon": -1.089209, "name": "Belgrave Auto Spares", "address": "Plot 9 Whitefield Road<br> Leicester", "postcode": "LE4 5PZ", "town": "Leicester", "phone": "0116 2667636", "id": 43319, "region": "Midlands" }, "geometry": { "type": "Point", "coordinates": [ -1.089209, 52.661645 ] } },
{ "type": "Feature", "properties": { "lat": 52.63983, "lon": -1.093139, "name": "T Watts, Leicester", "address": "Barkby Road<br> Leicester", "postcode": "LE4 9LG", "town": "Leicester", "phone": "0116 266 8684", "id": 43324, "region": "Midlands" }, "geometry": { "type": "Point", "coordinates": [ -1.093139, 52.63983 ] } },
{ "type": "Feature", "properties": { "lat": 52.65314, "lon": -1.128669, "name": "A & S Sidat t\/a A S Autos", "address": "Tithe Street<br> Leicester", "postcode": "LE5 4BN", "town": "Leicester", "phone": "0116 2763248", "id": 43325, "region": "Midlands" }, "geometry": { "type": "Point", "coordinates": [ -1.128669, 52.65314 ] } },
{ "type": "Feature", "properties": { "lat": 52.57757, "lon": -1.120579, "name": "Smith Bros. Commercials", "address": "Plot 3(1) Whitefield Road<br> Leicester", "postcode": "LE4 5PZ", "town": "Leicester", "phone": "0116 2661156", "id": 43359, "region": "Midlands" }, "geometry": { "type": "Point", "coordinates": [ -1.120579, 52.57757 ] } },
{ "type": "Feature", "properties": { "lat": 52.576614, "lon": -1.120905, "name": "Wigston Car Breakers", "address": "101-120 Harrison Close<br> South Wigston<br> Leicester", "postcode": "LE18 4ZL", "town": "Leicester", "phone": "0116 2785489", "id": 43361, "region": "Midlands" }, "geometry": { "type": "Point", "coordinates": [ -1.120905, 52.576614 ] } },
{ "type": "Feature", "properties": { "lat": 52.65314, "lon": -1.128669, "name": "Wigston Car Breakers", "address": "Plot 4 Harrison Close<br> South Wigston <br> Leicester", "postcode": "LE18 4ZL", "town": "Leicester", "phone": "0116 2785489", "id": 43362, "region": "Midlands" }, "geometry": { "type": "Point", "coordinates": [ -1.128669, 52.65314 ] } },
{ "type": "Feature", "properties": { "lat": 52.645465, "lon": -1.115529, "name": "Leicester Car Spares", "address": "Plot 7  Whitefield Road<br> Leicester", "postcode": "LE4 5PZ", "town": "Leicester", "phone": "0116 2669607", "id": 43378, "region": "Midlands" }, "geometry": { "type": "Point", "coordinates": [ -1.115529, 52.645465 ] } },
{ "type": "Feature", "properties": { "lat": 52.951369, "lon": -1.302848, "name": "A E Burgess and Sons Ltd", "address": "Ulverscroft Road<br> Leicester", "postcode": "LE4 6BY", "town": "Leicester", "phone": "0116 251 8475", "id": 43379, "region": "Midlands" }, "geometry": { "type": "Point", "coordinates": [ -1.302848, 52.951369 ] } },
{ "type": "Feature", "properties": { "lat": 52.940843, "lon": -1.182843, "name": "Donald Ward Limited", "address": "Griffon Road<br> Quarry Hill Ind Est<br> Ilkeston<br> Derbyshire", "postcode": "DE7 4DA", "town": "Ilkeston", "phone": null, "id": 43394, "region": "Midlands" }, "geometry": { "type": "Point", "coordinates": [ -1.182843, 52.940843 ] } },
{ "type": "Feature", "properties": { "lat": 52.922696, "lon": -1.281942, "name": "AVS Vauxhall Breakers", "address": "Newton Street<br> Dunkirk<br> Nottingham", "postcode": "NG7 2TJ", "town": "Nottingham", "phone": "0115 924 4600", "id": 43395, "region": "Midlands" }, "geometry": { "type": "Point", "coordinates": [ -1.281942, 52.922696 ] } },
{ "type": "Feature", "properties": { "lat": 53.08499, "lon": -1.351975, "name": "Phoenix Autosalvage", "address": "Bessell Lane<br> Stapleford<br> Nottingham", "postcode": "NG9 7BX", "town": "Stapleford", "phone": "0115 9397500", "id": 43419, "region": "Midlands" }, "geometry": { "type": "Point", "coordinates": [ -1.351975, 53.08499 ] } },
{ "type": "Feature", "properties": { "lat": 52.940843, "lon": -1.182843, "name": "Sims Group UK Limited", "address": "Brichwood Lane<br> Somercoates<br> Alfreton<br> Derbyshire", "postcode": "DE55 4NH", "town": "Alfreton", "phone": "01773 603512", "id": 43438, "region": "Midlands" }, "geometry": { "type": "Point", "coordinates": [ -1.182843, 52.940843 ] } },
{ "type": "Feature", "properties": { "lat": 53.177046, "lon": -1.214585, "name": "Sims Group UK Limited", "address": "Harrimans Lane<br> Dunkirk<br> Nottingham", "postcode": "NG7 2SD", "town": "Nottingham", "phone": "0115 9784676", "id": 43449, "region": "Midlands" }, "geometry": { "type": "Point", "coordinates": [ -1.214585, 53.177046 ] } },
{ "type": "Feature", "properties": { "lat": 53.552995, "lon": -0.816584, "name": "Vale Road Dismantlers", "address": "Vale Road<br> Mansfield Woodhouse<br> Mansfield", "postcode": "WG19 8DP", "town": "Mansfield", "phone": "01623 627131", "id": 43454, "region": "Midlands" }, "geometry": { "type": "Point", "coordinates": [ -0.816584, 53.552995 ] } },
{ "type": "Feature", "properties": { "lat": 52.926854, "lon": -1.291806, "name": "Userve Ltd t\/a Copart UK", "address": "Sandtoft Ind Est<br> Sandtoft Road<br> Belton<br> Doncaster<br> S Yorks", "postcode": "DN9 1PN", "town": "Belton", "phone": "01427 873777", "id": 43459, "region": "Midlands" }, "geometry": { "type": "Point", "coordinates": [ -1.291806, 52.926854 ] } },
{ "type": "Feature", "properties": { "lat": 53.379472, "lon": -1.002936, "name": "Megavaux", "address": "Station Road<br> Sandiacre<br> Nottingham", "postcode": "NG10 5AP", "town": "Nottingham", "phone": "0115 9497007", "id": 43483, "region": "Midlands" }, "geometry": { "type": "Point", "coordinates": [ -1.002936, 53.379472 ] } },
{ "type": "Feature", "properties": { "lat": 52.659689, "lon": -1.129615, "name": "French Spares", "address": "Access Road<br> Ranskill<br> Retford<br>  Nottingham<br> Notts", "postcode": "DN22 8LW", "town": "Retford", "phone": "07974 561250", "id": 43554, "region": "Midlands" }, "geometry": { "type": "Point", "coordinates": [ -1.129615, 52.659689 ] } },
{ "type": "Feature", "properties": { "lat": 53.02053, "lon": -1.298589, "name": "Mega Auto Spares", "address": "10 and 11 Whitefield Road<br> Leicester", "postcode": "LE4 5PZ", "town": "Leicester", "phone": "0116 2611140", "id": 43579, "region": "Midlands" }, "geometry": { "type": "Point", "coordinates": [ -1.298589, 53.02053 ] } },
{ "type": "Feature", "properties": { "lat": 52.72807, "lon": -1.368404, "name": "Project Bikes", "address": "Units 5-7<br> Great Northern Road<br> Eastwood<br> Nottingham", "postcode": "NG16 3PD", "town": "Nottingham", "phone": "01773 765051", "id": 43588, "region": "Midlands" }, "geometry": { "type": "Point", "coordinates": [ -1.368404, 52.72807 ] } },
{ "type": "Feature", "properties": { "lat": 53.21122, "lon": -0.898539, "name": "P C Kent & R A Kent T\/A Kent Bros Auto Salvage", "address": "Hector Road<br> Coalville<br> Leicestershire", "postcode": "LE67 3FR", "town": "Coalville", "phone": "01530 810363", "id": 43589, "region": "Midlands" }, "geometry": { "type": "Point", "coordinates": [ -0.898539, 53.21122 ] } },
{ "type": "Feature", "properties": { "lat": 53.600649, "lon": -1.026179, "name": "Reclamations Ollerton Ltd", "address": "Tuxford North Goods Yard<br> Lincoln Road<br> Tuxford<br> Notts", "postcode": "NG22 0JL", "town": "Tuxford", "phone": "01777 870814", "id": 43590, "region": "Midlands" }, "geometry": { "type": "Point", "coordinates": [ -1.026179, 53.600649 ] } },
{ "type": "Feature", "properties": { "lat": 53.627865, "lon": -0.951554, "name": "A Jordan & G Abeysekera T\/A G & A Motor Spares", "address": "3 Briars Lane Industrial Estate<br> Stainforth<br> Doncaster", "postcode": "DN7 5AZ", "town": "Stainforth", "phone": "01302 843986", "id": 43592, "region": "Midlands" }, "geometry": { "type": "Point", "coordinates": [ -0.951554, 53.627865 ] } },
{ "type": "Feature", "properties": { "lat": 53.064803, "lon": -0.803224, "name": "4 Rings Spares Ltd", "address": "5<br>7 Frontier Works<br> King Edward Road<br> Thorne<br> Doncaster", "postcode": "DN8 4HU", "town": "Thorne", "phone": "01405 816661", "id": 43596, "region": "Midlands" }, "geometry": { "type": "Point", "coordinates": [ -0.803224, 53.064803 ] } },
{ "type": "Feature", "properties": { "lat": 53.376565, "lon": -1.061729, "name": "J Jermyn T\/A Collect-a-Wreck", "address": "17 Belvoir Crescent<br> Newark<br> Notts", "postcode": "NG24 4DW", "town": "Newark", "phone": null, "id": 43597, "region": "Midlands" }, "geometry": { "type": "Point", "coordinates": [ -1.061729, 53.376565 ] } },
{ "type": "Feature", "properties": { "lat": 53.379472, "lon": -1.002936, "name": "Mini Classics", "address": "The Barn<br> Bawtry Road<br> Blyth<br> Worksop<br> Notts", "postcode": "S81 8HG", "town": "Worksop", "phone": "01909 591065", "id": 43598, "region": "Midlands" }, "geometry": { "type": "Point", "coordinates": [ -1.002936, 53.379472 ] } },
{ "type": "Feature", "properties": { "lat": 52.90355, "lon": -1.358199, "name": "V & K Dismantlers Ltd", "address": "Access Road<br> Ranskill<br> Nottingham<br> Notts", "postcode": "DN22 8LW", "town": "Nottingham", "phone": "01777 818765", "id": 43599, "region": "Midlands" }, "geometry": { "type": "Point", "coordinates": [ -1.358199, 52.90355 ] } },
{ "type": "Feature", "properties": { "lat": 52.97861, "lon": -1.310189, "name": "M Cox t\/a Mainline Ford Dismantlers", "address": "Old Sawley Station<br> Sawley Road<br> Breaston<br> Derby<br> Derbys", "postcode": "DE72 3EF", "town": "Breaston", "phone": "01332 872 018", "id": 43601, "region": "Midlands" }, "geometry": { "type": "Point", "coordinates": [ -1.310189, 52.97861 ] } },
{ "type": "Feature", "properties": { "lat": 53.013735, "lon": -1.353434, "name": "Salvogroup", "address": "103a Awsworth Road<br> Ilkeston<br> Derbys", "postcode": "DE7 8JP", "town": "Ilkeston", "phone": "0115 9445644", "id": 43602, "region": "Midlands" }, "geometry": { "type": "Point", "coordinates": [ -1.353434, 53.013735 ] } },
{ "type": "Feature", "properties": { "lat": 52.97372, "lon": -1.168599, "name": "Salvogroup", "address": "Longbridge Lane<br> Heanor<br> Derbys", "postcode": "DE75 7FG", "town": "Heanor", "phone": "01773 531166", "id": 43603, "region": "Midlands" }, "geometry": { "type": "Point", "coordinates": [ -1.168599, 52.97372 ] } },
{ "type": "Feature", "properties": { "lat": 52.940843, "lon": -1.182843, "name": "Nottingham Ford Dismantlers", "address": "Bleachers House<br> Unit 2 Bleachers Yard<br> New Basford<br> Nottingham", "postcode": "NG7 7EF", "town": "Nottingham", "phone": "0115 970 4008", "id": 43604, "region": "Midlands" }, "geometry": { "type": "Point", "coordinates": [ -1.182843, 52.940843 ] } },
{ "type": "Feature", "properties": { "lat": 53.227902, "lon": -1.207614, "name": "Bits at Micks", "address": "Newton Street<br> Dunkirk<br> Nottingham", "postcode": "NG7 2SG", "town": "Nottingham", "phone": "0115 9244040", "id": 43608, "region": "Midlands" }, "geometry": { "type": "Point", "coordinates": [ -1.207614, 53.227902 ] } },
{ "type": "Feature", "properties": { "lat": 53.11364, "lon": -1.120319, "name": "S Cliffe t\/a NDS Dismantlers", "address": "25 Kettles Yard<br> Langwith Road<br> Shirebrook<br> Mansfield<br> Notts", "postcode": "NG20 9RN", "town": "Mansfield", "phone": "01623 744446", "id": 43610, "region": "Midlands" }, "geometry": { "type": "Point", "coordinates": [ -1.120319, 53.11364 ] } },
{ "type": "Feature", "properties": { "lat": 53.071558, "lon": -1.341812, "name": "N Statton t\/a Ray's", "address": "38 Hemsley Road<br> Rainworth<br> Mansfield<br> Notts", "postcode": "NG21 0DG", "town": "Mansfield", "phone": "01623 797 441", "id": 43611, "region": "Midlands" }, "geometry": { "type": "Point", "coordinates": [ -1.341812, 53.071558 ] } },
{ "type": "Feature", "properties": { "lat": 52.949225, "lon": -1.143924, "name": "K Slack T\/A Allvox", "address": "Plot 2<br> Pye Bridge Industrial Estate<br> Pye Bridge<br> Alfreton<br> Derbyshire", "postcode": "DE55 4NX", "town": "Alfreton", "phone": "01773 608197", "id": 43615, "region": "Midlands" }, "geometry": { "type": "Point", "coordinates": [ -1.143924, 52.949225 ] } },
{ "type": "Feature", "properties": { "lat": 52.981373, "lon": -1.180871, "name": "Rover Breakers", "address": "206 Station Road<br> Langley Mill<br> Nottingham", "postcode": "NG16 4AE", "town": "Nottingham", "phone": "01773 531363", "id": 43617, "region": "Midlands" }, "geometry": { "type": "Point", "coordinates": [ -1.180871, 52.981373 ] } },
{ "type": "Feature", "properties": { "lat": 53.08539, "lon": -1.309419, "name": "V W Audi Breakers", "address": "Unit 2 Church Street<br> Church View Ind Est<br> Basford<br> Nottingham", "postcode": "NG6 0GA", "town": "Nottingham", "phone": "0115 9791121", "id": 43618, "region": "Midlands" }, "geometry": { "type": "Point", "coordinates": [ -1.309419, 53.08539 ] } },
{ "type": "Feature", "properties": { "lat": 53.208515, "lon": -0.992954, "name": "R Chrich t\/a Pinxton Car Dismantlers", "address": "Old Station Yard<br> 23A Wharf Road<br> Pinxton", "postcode": "NG16 6NZ", "town": "Pinxton", "phone": "01773 861 854", "id": 43619, "region": "Midlands" }, "geometry": { "type": "Point", "coordinates": [ -0.992954, 53.208515 ] } },
{ "type": "Feature", "properties": { "lat": 52.637335, "lon": -1.14126, "name": "A & N White t\/a B D Motor Spares", "address": "Harrow Lane<br> Boughton<br> Newark<br> Nottinghamshire", "postcode": "NG22 9LA", "town": "Newark", "phone": "01623 862157", "id": 43620, "region": "Midlands" }, "geometry": { "type": "Point", "coordinates": [ -1.14126, 52.637335 ] } },
{ "type": "Feature", "properties": { "lat": 53.202396, "lon": -1.20811, "name": "End of Life Centre", "address": "Units 1 & 2 Jarvis Street Industrial Estate<br> Leicester", "postcode": "LE3 5BN", "town": "Leicester", "phone": "0116 2516070", "id": 43622, "region": "Midlands" }, "geometry": { "type": "Point", "coordinates": [ -1.20811, 53.202396 ] } },
{ "type": "Feature", "properties": { "lat": 52.9093, "lon": -1.016519, "name": "Shirebrook Autosalvage", "address": "Portland Drive Industrial Estate<br> Shirebrook<br> Mansfield<br> Nottinghamshire", "postcode": "NG20 8SG", "town": "Mansfield", "phone": "01623 742 199", "id": 43623, "region": "Midlands" }, "geometry": { "type": "Point", "coordinates": [ -1.016519, 52.9093 ] } },
{ "type": "Feature", "properties": { "lat": 53.563229, "lon": -0.848735, "name": "Allsops Metals Ltd", "address": "Lodge on the Wolds<br> Fosseway<br> Cotgrave<br> Nottingham<br> Notts", "postcode": "NG12 3HG", "town": "Nottingham", "phone": "01949 81784", "id": 43624, "region": "Midlands" }, "geometry": { "type": "Point", "coordinates": [ -0.848735, 53.563229 ] } },
{ "type": "Feature", "properties": { "lat": 53.008615, "lon": -1.254874, "name": "Delta Salvage Ltd", "address": "Unit 1 Delta Business Park<br> Sandtoft<br> Doncaster", "postcode": "DN9 1PN", "town": "Doncaster", "phone": "01427 874753", "id": 43631, "region": "Midlands" }, "geometry": { "type": "Point", "coordinates": [ -1.254874, 53.008615 ] } },
{ "type": "Feature", "properties": { "lat": 52.978065, "lon": -1.295159, "name": "1st Motor Salvage.com Ltd", "address": "Common Lane<br> Watnall<br> Nottingham", "postcode": "NG16 1HD", "town": "Nottingham", "phone": "0115 9458400", "id": 43633, "region": "Midlands" }, "geometry": { "type": "Point", "coordinates": [ -1.295159, 52.978065 ] } },
{ "type": "Feature", "properties": { "lat": 52.923598, "lon": -1.204564, "name": "Ilkeston Peugeot Breakers", "address": "Station Street<br> Ilkeston<br> Derby<br> Derbyshire", "postcode": "DE7 5TE", "town": "Derby", "phone": "0115 930 0588", "id": 43635, "region": "Midlands" }, "geometry": { "type": "Point", "coordinates": [ -1.204564, 52.923598 ] } },
{ "type": "Feature", "properties": { "lat": 52.588638, "lon": -1.206464, "name": "Intercity Motor Spares", "address": "97 Windsor Street<br> Beeston<br> Nottingham", "postcode": "NG9 2BW", "town": "Nottingham", "phone": "07974 892347", "id": 43640, "region": "Midlands" }, "geometry": { "type": "Point", "coordinates": [ -1.206464, 52.588638 ] } },
{ "type": "Feature", "properties": { "lat": 53.601172, "lon": -1.026282, "name": "Dave Lount Cars", "address": "The Bungalow<br> Seine Lane<br> Enderby<br> Leics", "postcode": "LE19 4PD", "town": "Leicester", "phone": "0116 286 5521", "id": 43641, "region": "Midlands" }, "geometry": { "type": "Point", "coordinates": [ -1.026282, 53.601172 ] } },
{ "type": "Feature", "properties": { "lat": 53.570532, "lon": -0.991086, "name": "C Holt & N Rumney T\/A RTN Motor Spares", "address": "7 Briars Lane Industrial Estate<br> Stainforth<br> Doncaster", "postcode": "DN7 5AZ", "town": "Doncaster", "phone": "01302 351167", "id": 43644, "region": "Midlands" }, "geometry": { "type": "Point", "coordinates": [ -0.991086, 53.570532 ] } },
{ "type": "Feature", "properties": { "lat": 53.595075, "lon": -1.030399, "name": "Continental Car Breakers Ltd", "address": "The Firs<br> Mill Hill Road<br> Hatfield<br> Doncaster<br> S Yorkshire", "postcode": "DN7 6BQ", "town": "Doncaster", "phone": "01302 840306", "id": 43646, "region": "Midlands" }, "geometry": { "type": "Point", "coordinates": [ -1.030399, 53.595075 ] } },
{ "type": "Feature", "properties": { "lat": 52.90249, "lon": -1.466086, "name": "A - Z Japanese Salvage", "address": "Tithe Street<br> Leicester", "postcode": "LE5 4BN", "town": "Leicester", "phone": "0116 2766080", "id": 43653, "region": "Midlands" }, "geometry": { "type": "Point", "coordinates": [ -1.466086, 52.90249 ] } },
{ "type": "Feature", "properties": { "lat": 52.905289, "lon": -0.922596, "name": "Dunscroft Renault Iveco Van Spares", "address": "East Lane<br> Stainforth<br> Doncaster", "postcode": "DN7 5HF", "town": "Doncaster", "phone": "01302 846444", "id": 43654, "region": "Midlands" }, "geometry": { "type": "Point", "coordinates": [ -0.922596, 52.905289 ] } },
{ "type": "Feature", "properties": { "lat": 52.978505, "lon": -1.307009, "name": "Adams Autos", "address": "196 Cotton Lane<br> Osmaston<br> Derby", "postcode": "DE24 8GH", "town": "Derby", "phone": "01332 372228", "id": 43664, "region": "Midlands" }, "geometry": { "type": "Point", "coordinates": [ -1.307009, 52.978505 ] } },
{ "type": "Feature", "properties": { "lat": 52.589275, "lon": -1.160454, "name": "Glenbarry Metals Ltd", "address": "The Recycling Yard<br> Harby Road<br> Langar North Trading Est<br> Langar", "postcode": "NG13 9HP", "town": "Nottingham", "phone": "01949 869441", "id": 43666, "region": "Midlands" }, "geometry": { "type": "Point", "coordinates": [ -1.160454, 52.589275 ] } },
{ "type": "Feature", "properties": { "lat": 53.073893, "lon": -0.809347, "name": "Cargo Salvage Ltd", "address": "Abbey Street<br> Ilkeston<br> Derbyshire", "postcode": "DE7 8DG", "town": "Ilkeston", "phone": null, "id": 43670, "region": "Midlands" }, "geometry": { "type": "Point", "coordinates": [ -0.809347, 53.073893 ] } },
{ "type": "Feature", "properties": { "lat": 53.10924, "lon": -1.237294, "name": "A and P Auto Salvage Ltd", "address": "Unit 9 Glenford Grange<br> Little Glen Road<br>Glen Parva<br> Leicester", "postcode": "LE2 9TW", "town": "Leicester", "phone": "0116 2783494", "id": 43673, "region": "Midlands" }, "geometry": { "type": "Point", "coordinates": [ -1.237294, 53.10924 ] } },
{ "type": "Feature", "properties": { "lat": 53.368335, "lon": -1.120639, "name": "Briggs Metals", "address": "The Yard<br> Old Great North Road<br> Newark<br> Notts", "postcode": "NG24 1DP", "town": "Newark", "phone": "01636 671264", "id": 43683, "region": "Midlands" }, "geometry": { "type": "Point", "coordinates": [ -1.120639, 53.368335 ] } },
{ "type": "Feature", "properties": { "lat": 53.604629, "lon": -0.650323, "name": "Charles Trent Ltd", "address": "Sidings Road<br> Lowmoor Business Park<br> Kirkby in Ashfield<br> Nottinghamshire", "postcode": "NG17 7JZ", "town": "Kirkby-in-Ashfield", "phone": null, "id": 43689, "region": "Midlands" }, "geometry": { "type": "Point", "coordinates": [ -0.650323, 53.604629 ] } },
{ "type": "Feature", "properties": { "lat": 52.382484, "lon": -2.25704, "name": "P A Neale and D Neale T\/A Langold Auto Dismantlers", "address": "Costhorpe Ind Estate<br> Doncaster Road<br> Costhorpe<br> Worksop<br> Notts", "postcode": "S81 9QR", "town": "Worksop", "phone": "01909 730255", "id": 43697, "region": "Midlands" }, "geometry": { "type": "Point", "coordinates": [ -2.25704, 52.382484 ] } },
{ "type": "Feature", "properties": { "lat": 52.463069, "lon": -2.098991, "name": "Archers Commercials Ltd", "address": "Sandtoft Ind Est<br> Sandtoft Road<br> Belton<br> Doncaster<br> S Yorks", "postcode": "DN9 1PN", "town": "Doncaster", "phone": "01427 875551", "id": 43698, "region": "Midlands" }, "geometry": { "type": "Point", "coordinates": [ -2.098991, 52.463069 ] } },
{ "type": "Feature", "properties": { "lat": 52.465265, "lon": -2.10138, "name": "J S J Metal Recycling Limited", "address": "Wybeck Road<br> Mannaberg Way<br> Scunthorpe", "postcode": "DN15 8XF", "town": "Scunthorpe", "phone": "01522 527538", "id": 43734, "region": "Midlands" }, "geometry": { "type": "Point", "coordinates": [ -2.10138, 52.465265 ] } },
{ "type": "Feature", "properties": { "lat": 52.58007, "lon": -2.131094, "name": "Kidderminster Car Dismantlers", "address": "Lisle Avenue<br> Kidderminster<br> Worcs", "postcode": "DY11 9XX", "town": "Kidderminster", "phone": "01562 755929", "id": 46044, "region": "Midlands" }, "geometry": { "type": "Point", "coordinates": [ -2.131094, 52.58007 ] } },
{ "type": "Feature", "properties": { "lat": 52.57278, "lon": -2.148489, "name": "Sims Group UK Limited", "address": "James Scott Road (Off Park Lane)<br> Halesowen<br> West Midlands", "postcode": "B63 2QR", "town": "Halesowen", "phone": "01384 567121", "id": 46061, "region": "Midlands" }, "geometry": { "type": "Point", "coordinates": [ -2.148489, 52.57278 ] } },
{ "type": "Feature", "properties": { "lat": 52.48589, "lon": -2.243529, "name": "Saltbrook Motors", "address": "Saltbrook Road<br> Cradley Heath<br> B'Ham", "postcode": "B63 2QJ", "town": "Cradley Heath", "phone": "01384 635238", "id": 46080, "region": "Midlands" }, "geometry": { "type": "Point", "coordinates": [ -2.243529, 52.48589 ] } },
{ "type": "Feature", "properties": { "lat": 52.487685, "lon": -2.073081, "name": "Church Road Motors(Bradmore) Ltd", "address": "49 Church Road<br>  Bradmore<br> Wolverhampton", "postcode": "WV3 7ER", "town": "Wolverhampton", "phone": "01902 334914", "id": 46120, "region": "Midlands" }, "geometry": { "type": "Point", "coordinates": [ -2.073081, 52.487685 ] } },
{ "type": "Feature", "properties": { "lat": 52.472415, "lon": -2.081574, "name": "Saunders Brothers", "address": "The Motor Yard<br> Prestwood Drive<br> Stourton<br> Stourbridge", "postcode": "DY7 5QT", "town": "Stourbridge", "phone": "01384 872361", "id": 46145, "region": "Midlands" }, "geometry": { "type": "Point", "coordinates": [ -2.081574, 52.472415 ] } },
{ "type": "Feature", "properties": { "lat": 52.50415, "lon": -2.169769, "name": "N L C Spares", "address": "57 Northfield Road<br> Netherton<br> Dudley<br> West Midlands", "postcode": "DY2 9JQ", "town": "Dudley", "phone": "01384 243757", "id": 46177, "region": "Midlands" }, "geometry": { "type": "Point", "coordinates": [ -2.169769, 52.50415 ] } },
{ "type": "Feature", "properties": { "lat": 52.482046, "lon": -2.121301, "name": "RKR Used Car Spares", "address": "14 St Andrews Street<br> Droitwich", "postcode": "WR9 8DY", "town": "Droitwich", "phone": "01905 29902", "id": 46179, "region": "Midlands" }, "geometry": { "type": "Point", "coordinates": [ -2.121301, 52.482046 ] } },
{ "type": "Feature", "properties": { "lat": 52.53405, "lon": -2.214245, "name": "Stallings Lane Car Spares", "address": "4 Stallings lane<br> Kingswinford<br> West Midlands", "postcode": "DY6 7LG", "town": "Kingswinford", "phone": "01384 287231", "id": 46180, "region": "Midlands" }, "geometry": { "type": "Point", "coordinates": [ -2.214245, 52.53405 ] } },
{ "type": "Feature", "properties": { "lat": 52.47557, "lon": -2.132249, "name": "A-Z Skips Ltd", "address": "Unit 3<br> 138 Hanbury Road<br> Stoke Prior<br> Bromsgrove<br> Worcs", "postcode": "B60 4JZ", "town": "Bromsgrove", "phone": "07831 306583", "id": 46181, "region": "Midlands" }, "geometry": { "type": "Point", "coordinates": [ -2.132249, 52.47557 ] } },
{ "type": "Feature", "properties": { "lat": 52.50044, "lon": -2.096894, "name": "Nine Locks Vehicle Dismantlers Ltd", "address": "Plot 4<br> Meeting Lane<br> Off Station Drive<br> Brierley Hill<br>  West Mids", "postcode": "DY5 3JZ", "town": "Brierley Hill", "phone": "01384 76566", "id": 46182, "region": "Midlands" }, "geometry": { "type": "Point", "coordinates": [ -2.096894, 52.50044 ] } },
{ "type": "Feature", "properties": { "lat": 52.458635, "lon": -2.107662, "name": "John Hewitt and Sons(Garages)Ltd", "address": "Smestow Bridge<br> Wombourne<br> Staffordshire", "postcode": "WV5 8AW", "town": "Wombourne", "phone": "01902 35600", "id": 46184, "region": "Midlands" }, "geometry": { "type": "Point", "coordinates": [ -2.107662, 52.458635 ] } },
{ "type": "Feature", "properties": { "lat": 52.657406, "lon": -3.141957, "name": "Transit Centre", "address": "Unit 15<br> Thornleigh Trading Estate<br> Blowers Greens<br> Dudley<br> West Midlands", "postcode": "DY2 8UB", "town": "Dudley", "phone": "01384 240933", "id": 46190, "region": "Midlands" }, "geometry": { "type": "Point", "coordinates": [ -3.141957, 52.657406 ] } },
{ "type": "Feature", "properties": { "lat": 52.69669, "lon": -3.155589, "name": "M Munir t\/a Black Country Salvage", "address": "1-2 Bromley Street<br> Lye<br> Stourbridge<br> West Midlands", "postcode": "DY9 8HX", "town": "Stourbridge", "phone": "07929 169517", "id": 46195, "region": "Midlands" }, "geometry": { "type": "Point", "coordinates": [ -3.155589, 52.69669 ] } },
{ "type": "Feature", "properties": { "lat": 52.546, "lon": -3.235259, "name": "Potters Vehicle Dismantlers", "address": "3 Sandy Lane<br>Titton<br> Stourport On Severn", "postcode": "DY13 9PZ", "town": "Stourport On Severn", "phone": "01299 823134", "id": 46209, "region": "Midlands" }, "geometry": { "type": "Point", "coordinates": [ -3.235259, 52.546 ] } },
{ "type": "Feature", "properties": { "lat": 52.617985, "lon": -2.477524, "name": "Welsh Border Motor Spares", "address": "Severn Road<br> Welshpool<br> Powys", "postcode": "SY21 7AZ", "town": "Welshpool", "phone": "01938 554791", "id": 47071, "region": "Midlands" }, "geometry": { "type": "Point", "coordinates": [ -2.477524, 52.617985 ] } },
{ "type": "Feature", "properties": { "lat": 52.64496, "lon": -2.474311, "name": "Lovatt Brothers", "address": "Goetre Villa<br> Abermule<br> Newtown<br> Powys", "postcode": "SY15 6NW", "town": "Newtown", "phone": "01686 630600", "id": 47073, "region": "Midlands" }, "geometry": { "type": "Point", "coordinates": [ -2.474311, 52.64496 ] } },
{ "type": "Feature", "properties": { "lat": 52.698818, "lon": -2.505411, "name": "Oakley Arnold Ltd", "address": "Cockshutt Lane<br> Broseley<br> Shropshire", "postcode": "TF12 5NE", "town": "Telford", "phone": "01952 882322", "id": 47080, "region": "Midlands" }, "geometry": { "type": "Point", "coordinates": [ -2.505411, 52.698818 ] } },
{ "type": "Feature", "properties": { "lat": 52.642441, "lon": -2.44275, "name": "Knighton Car Spares", "address": "Brick Kiln Lane<br>  Five Turnings<br> Knighton<br> Powys", "postcode": "LD7 1NF", "town": "Knighton", "phone": "01547 528269", "id": 47081, "region": "Midlands" }, "geometry": { "type": "Point", "coordinates": [ -2.44275, 52.642441 ] } },
{ "type": "Feature", "properties": { "lat": 52.822272, "lon": -2.494304, "name": "Metal and Waste Recycling Ltd", "address": "Telford Motor Spares<br> Lightmoor Road<br> Little Dawley<br> Telford", "postcode": "TF4 3QB", "town": "Telford", "phone": "01952 591728", "id": 47084, "region": "Midlands" }, "geometry": { "type": "Point", "coordinates": [ -2.494304, 52.822272 ] } },
{ "type": "Feature", "properties": { "lat": 52.620395, "lon": -2.457084, "name": "James Rollason", "address": "Millfields<br> Off Heybridge Rd<br> Wellington<br> Telford", "postcode": "TF1 1JT", "town": "Telford", "phone": "01952 223700", "id": 47087, "region": "Midlands" }, "geometry": { "type": "Point", "coordinates": [ -2.457084, 52.620395 ] } },
{ "type": "Feature", "properties": { "lat": 52.905738, "lon": -2.720931, "name": "Hudson Industrial Services", "address": "Tweedale Recycling Centre<br> Tweedale North Ind Est<br> Madeley<br> Telford<br> Shropshire", "postcode": "TF7 4JT", "town": "Telford", "phone": "01952 585347", "id": 47088, "region": "Midlands" }, "geometry": { "type": "Point", "coordinates": [ -2.720931, 52.905738 ] } },
{ "type": "Feature", "properties": { "lat": 52.439392, "lon": -2.836119, "name": "Furber Bros Motor Spares", "address": "The Firs<br> Childs Ercall<br> Market Drayton<br> Shropshire", "postcode": "TF9 2DL", "town": "Market Drayton", "phone": "01952 840341", "id": 47089, "region": "Midlands" }, "geometry": { "type": "Point", "coordinates": [ -2.836119, 52.439392 ] } },
{ "type": "Feature", "properties": { "lat": 52.832895, "lon": -2.455015, "name": "Jackfield Car and Commercial Ltd", "address": "Calcutt Road<br> Jackfield<br> Telford<br> Shropshire", "postcode": "TF8 7LX", "town": "Oswestry", "phone": "01952 884287", "id": 47090, "region": "Midlands" }, "geometry": { "type": "Point", "coordinates": [ -2.455015, 52.832895 ] } },
{ "type": "Feature", "properties": { "lat": 52.70039, "lon": -2.496039, "name": "William James Furber", "address": "Roving Bridge Whixall<br> Whitchurch<br> Shropshire", "postcode": "SY13 2RT", "town": "Whitchurch", "phone": "01948  840108", "id": 47094, "region": "Midlands" }, "geometry": { "type": "Point", "coordinates": [ -2.496039, 52.70039 ] } },
{ "type": "Feature", "properties": { "lat": 52.842475, "lon": -3.058399, "name": "Central Car Spares and Salvage", "address": "Plot 2 Long Lane Ind Est<br> Craven Arms<br> Shropshire", "postcode": "SY7 8DU", "town": "Craven Arms", "phone": "01588 673747", "id": 47095, "region": "Midlands" }, "geometry": { "type": "Point", "coordinates": [ -3.058399, 52.842475 ] } },
{ "type": "Feature", "properties": { "lat": 52.661304, "lon": -2.35446, "name": "D & P Pennil", "address": "8 Hatton Common<br> Hinstock<br> Market Drayton<br> Shropshire", "postcode": "TF9 TS", "town": "Market Drayton", "phone": "01952 840260", "id": 47096, "region": "Midlands" }, "geometry": { "type": "Point", "coordinates": [ -2.35446, 52.661304 ] } },
{ "type": "Feature", "properties": { "lat": 52.7025, "lon": -2.43293, "name": "Dee's Metals Ltd", "address": "Whitchurch Drive<br> Wellington<br> Telford<br> Shropshire", "postcode": "TF1 5BY", "town": "Telford", "phone": "01952 242363", "id": 47097, "region": "Midlands" }, "geometry": { "type": "Point", "coordinates": [ -2.43293, 52.7025 ] } },
{ "type": "Feature", "properties": { "lat": 52.65794, "lon": -2.479684, "name": "B Chapman t\/a Autosalvage", "address": "Orchard Place<br> Morda<br> Oswestry<br> Shropshire", "postcode": "SY10 9PD", "town": "Oswestry", "phone": "01691 652 509", "id": 47098, "region": "Midlands" }, "geometry": { "type": "Point", "coordinates": [ -2.479684, 52.65794 ] } },
{ "type": "Feature", "properties": { "lat": 52.714313, "lon": -2.734382, "name": "Shifnal Motor Spares Ltd", "address": "Unit 21 Shifnal Ind Est<br> Lamledge Lane<br> Shifnal<br> Shrops", "postcode": "TF11 8SD", "town": "Telford", "phone": "01952 462091", "id": 47114, "region": "Midlands" }, "geometry": { "type": "Point", "coordinates": [ -2.734382, 52.714313 ] } },
{ "type": "Feature", "properties": { "lat": 52.840256, "lon": -3.084015, "name": "C Sedgewick T\/A Wrekin Motor Spares", "address": "Rookery Road<br> St Georges<br> Telford<br> Shropshire", "postcode": "TF2 9BW", "town": "Oswestry", "phone": "01952 618830", "id": 47146, "region": "Midlands" }, "geometry": { "type": "Point", "coordinates": [ -3.084015, 52.840256 ] } },
{ "type": "Feature", "properties": { "lat": 52.512777, "lon": -3.314612, "name": "Telford Commercial Vehicles", "address": "Doseley Industrial Estate<br> Frame Lane<br> Doseley<br> Telford", "postcode": "TF4 3BZ", "town": "Oswestry", "phone": "01952 505487", "id": 47156, "region": "Midlands" }, "geometry": { "type": "Point", "coordinates": [ -3.314612, 52.512777 ] } },
{ "type": "Feature", "properties": { "lat": 52.426785, "lon": -1.492269, "name": "Forest Auto Salvage", "address": "Forest Vale Road<br> Cinderford", "postcode": "GL14 2PH", "town": "Cinderford", "phone": "01594 825423", "id": 48068, "region": "Midlands" }, "geometry": { "type": "Point", "coordinates": [ -1.492269, 52.426785 ] } },
{ "type": "Feature", "properties": { "lat": 52.388004, "lon": -1.528826, "name": "J Woodward", "address": "The Bungalow<br> Hawkwell Green<br> Cinderford", "postcode": "GL14 3JJ", "town": "Cinderford", "phone": "01594 542559", "id": 48070, "region": "Midlands" }, "geometry": { "type": "Point", "coordinates": [ -1.528826, 52.388004 ] } },
{ "type": "Feature", "properties": { "lat": 52.390245, "lon": -1.280835, "name": "Jackson Dunn Ltd (operated by EMR)", "address": "Stoney Stanton Road<br> Coventry", "postcode": "CV6 5DL", "town": "Coventry", "phone": "02476 689051", "id": 48147, "region": "Midlands" }, "geometry": { "type": "Point", "coordinates": [ -1.280835, 52.390245 ] } },
{ "type": "Feature", "properties": { "lat": 52.380276, "lon": -1.244519, "name": "DJ Craddock and Sons", "address": "Clevedon Farm<br> Icknield Street<br> Beoley<br> Redditch<br> Worcs", "postcode": "B98 9AH", "town": "Beoley", "phone": "01527 66866", "id": 48213, "region": "Midlands" }, "geometry": { "type": "Point", "coordinates": [ -1.244519, 52.380276 ] } },
{ "type": "Feature", "properties": { "lat": 52.456875, "lon": -1.48075, "name": "Delrene Motors", "address": "Brook Street<br> Lakeside<br> Redditch", "postcode": "B98 8NG", "town": "Redditch", "phone": "01527 63274", "id": 48215, "region": "Midlands" }, "geometry": { "type": "Point", "coordinates": [ -1.48075, 52.456875 ] } },
{ "type": "Feature", "properties": { "lat": 52.456875, "lon": -1.48075, "name": "Midlands Reclamation and Waste Ltd", "address": "Land at Simms Bird Commercial Metals Ltd<br> Long Marston Road<br> Long Marston<br> Stratford Upon Avon<br> Warwickshire", "postcode": "CV37 8AQ", "town": "Long Marston", "phone": "01789 722466", "id": 48231, "region": "Midlands" }, "geometry": { "type": "Point", "coordinates": [ -1.48075, 52.456875 ] } },
{ "type": "Feature", "properties": { "lat": 53.614325, "lon": -2.170034, "name": "Whites of Coventry Ltd", "address": "Ryton Mill<br> Ryton on Dunsmore<br> Coventry", "postcode": "Cv8 3DX", "town": "Coventry", "phone": "024 7630 1981", "id": 48263, "region": "Midlands" }, "geometry": { "type": "Point", "coordinates": [ -2.170034, 53.614325 ] } },
{ "type": "Feature", "properties": { "lat": 53.45131, "lon": -2.722699, "name": "R Huckfield t\/a R &  C Metals", "address": "Unit 50 Two Shires Park<br> Weston Rd<br> Honeybourne<br> Worcs", "postcode": "WR11 7QF", "town": "Evesham", "phone": "01386 832606", "id": 48268, "region": "Midlands" }, "geometry": { "type": "Point", "coordinates": [ -2.722699, 53.45131 ] } },
{ "type": "Feature", "properties": { "lat": 53.50846, "lon": -2.163374, "name": "SITA Coventry Ltd", "address": "Ironbridge Works<br> Ibstock Road<br> Coventry", "postcode": "CV6 6JR", "town": "Coventry", "phone": null, "id": 48274, "region": "Midlands" }, "geometry": { "type": "Point", "coordinates": [ -2.163374, 53.50846 ] } },
{ "type": "Feature", "properties": { "lat": 53.479627, "lon": -2.276655, "name": "Auto Salvage Direct Ltd", "address": "Unit 3<br> Station Road<br> Ward Ind Est<br> Coleford<br> Glos", "postcode": "GL16 7LJ", "town": "Coleford", "phone": null, "id": 48275, "region": "Midlands" }, "geometry": { "type": "Point", "coordinates": [ -2.276655, 53.479627 ] } },
{ "type": "Feature", "properties": { "lat": 53.501345, "lon": -2.178774, "name": "Mazda Spares Ltd", "address": "Corporation Road<br> Rochdale", "postcode": "OL11 4HJ", "town": "Rochdale", "phone": "01706 658277", "id": 50013, "region": "North West" }, "geometry": { "type": "Point", "coordinates": [ -2.178774, 53.501345 ] } },
{ "type": "Feature", "properties": { "lat": 53.382719, "lon": -3.015505, "name": "Atlas Salvage", "address": "20 Jackson St<br> St Helens<br> Merseyside", "postcode": "WA9 1AN", "town": "St Helens", "phone": "01744 612712", "id": 50020, "region": "North West" }, "geometry": { "type": "Point", "coordinates": [ -3.015505, 53.382719 ] } },
{ "type": "Feature", "properties": { "lat": 53.540307, "lon": -2.112327, "name": "A1 Jap Spares", "address": "Mill Lane<br> Failsworth<br> Manchester", "postcode": "M35 0BJ", "town": "Manchester", "phone": null, "id": 50048, "region": "North West" }, "geometry": { "type": "Point", "coordinates": [ -2.112327, 53.540307 ] } },
{ "type": "Feature", "properties": { "lat": 53.325979, "lon": -2.735851, "name": "European Metal Recycling Ltd", "address": "West Egerton Street<br> Salford", "postcode": "M5 4LQ", "town": "Salford", "phone": null, "id": 50065, "region": "North West" }, "geometry": { "type": "Point", "coordinates": [ -2.735851, 53.325979 ] } },
{ "type": "Feature", "properties": { "lat": 53.614325, "lon": -2.170034, "name": "Hygrade Motors", "address": "Rothwell St.<br> Newton Heath<br> Manchester", "postcode": "M40 1EL", "town": "Manchester", "phone": "0161 682 4345", "id": 50081, "region": "North West" }, "geometry": { "type": "Point", "coordinates": [ -2.170034, 53.614325 ] } },
{ "type": "Feature", "properties": { "lat": 53.398784, "lon": -3.031876, "name": "P J Whelan t\/a Green La Car Spares", "address": "Railway Sidings<br> Green Lane<br> Birkenhead<br> Wirral", "postcode": "CH41 9AG", "town": "Birkenhead", "phone": "07958 751395", "id": 50085, "region": "North West" }, "geometry": { "type": "Point", "coordinates": [ -3.031876, 53.398784 ] } },
{ "type": "Feature", "properties": { "lat": 53.57208, "lon": -2.017399, "name": "Motion Power Ltd", "address": "International Car Spares<br> 11 Windsor St<br> Oldham", "postcode": "OL1 4AE", "town": "Oldham", "phone": "0161 6263681", "id": 50135, "region": "North West" }, "geometry": { "type": "Point", "coordinates": [ -2.017399, 53.57208 ] } },
{ "type": "Feature", "properties": { "lat": 53.57543, "lon": -2.091799, "name": "J Allen T\/A Runcorn Vehicle Dismantlers", "address": "Plot 4 Percival Lane<br> Runcorn", "postcode": "WA7 4DS", "town": "Runcorn", "phone": null, "id": 50139, "region": "North West" }, "geometry": { "type": "Point", "coordinates": [ -2.091799, 53.57543 ] } },
{ "type": "Feature", "properties": { "lat": 53.492122, "lon": -2.254987, "name": "Japs of Rochdale", "address": "Corporation Road<br> Rochdale", "postcode": "OL11 4HJ", "town": "Rochdale", "phone": null, "id": 50175, "region": "North West" }, "geometry": { "type": "Point", "coordinates": [ -2.254987, 53.492122 ] } },
{ "type": "Feature", "properties": { "lat": 53.470444, "lon": -2.188685, "name": "LJ Car Spares", "address": "280 Cleveland St.<br> Birkenhead<br> Wirral", "postcode": "CH41 4JN", "town": "Birkenhead", "phone": "N\/A", "id": 50215, "region": "North West" }, "geometry": { "type": "Point", "coordinates": [ -2.188685, 53.470444 ] } },
{ "type": "Feature", "properties": { "lat": 53.50443, "lon": -2.526084, "name": "Dronsfield Mercedes Benz", "address": "Wall Hill Mill<br> Mill Lane<br> Dobcross<br> Oldham", "postcode": "OL3 5BN", "town": "Oldham", "phone": "01457 871717", "id": 50237, "region": "North West" }, "geometry": { "type": "Point", "coordinates": [ -2.526084, 53.50443 ] } },
{ "type": "Feature", "properties": { "lat": 53.51328, "lon": -2.463979, "name": "Sanderson Bros.", "address": "Leach St. Works<br> Leach Street<br> Shaw<br> Nr Oldham", "postcode": "OL2 8QW", "town": "Shaw", "phone": "01706 881051", "id": 50239, "region": "North West" }, "geometry": { "type": "Point", "coordinates": [ -2.463979, 53.51328 ] } },
{ "type": "Feature", "properties": { "lat": 53.36444, "lon": -2.739349, "name": "Motor Body Services (Salford) Ltd", "address": "28 Cottenham Lane<br> Salford<br> Machester", "postcode": "M71TH", "town": "Salford", "phone": "0161 8346479", "id": 50240, "region": "North West" }, "geometry": { "type": "Point", "coordinates": [ -2.739349, 53.36444 ] } },
{ "type": "Feature", "properties": { "lat": 53.525001, "lon": -2.500701, "name": "Birch Lane Garage Ltd", "address": "21 Textile.<br> West Gorton<br> Manchester", "postcode": "M12 5DL", "town": "Manchester", "phone": "0161 2246633", "id": 50242, "region": "North West" }, "geometry": { "type": "Point", "coordinates": [ -2.500701, 53.525001 ] } },
{ "type": "Feature", "properties": { "lat": 53.138434, "lon": -2.387557, "name": "G Anderson", "address": "Victoria Street<br> Leigh<br> Lancs", "postcode": "WN7 5SE", "town": "Leigh", "phone": "01942 670809", "id": 50243, "region": "North West" }, "geometry": { "type": "Point", "coordinates": [ -2.387557, 53.138434 ] } },
{ "type": "Feature", "properties": { "lat": 53.467052, "lon": -2.264051, "name": "Mort Lane Motor Salvage", "address": "Unit 1<br> off Mort Lane<br> Tyldesley<br> Manchester", "postcode": "M29 8PF", "town": "Manchester", "phone": "0161 7994000", "id": 50245, "region": "North West" }, "geometry": { "type": "Point", "coordinates": [ -2.264051, 53.467052 ] } },
{ "type": "Feature", "properties": { "lat": 53.40025, "lon": -2.359589, "name": "Bold St Car Dismantlers", "address": "Plot 6\/7<br> Bold Street<br> Widnes", "postcode": "WA8 7RY", "town": "Widnes", "phone": null, "id": 50246, "region": "North West" }, "geometry": { "type": "Point", "coordinates": [ -2.359589, 53.40025 ] } },
{ "type": "Feature", "properties": { "lat": 53.558525, "lon": -2.329284, "name": "I Barton t\/a Gadbury Auto Salvage", "address": "Wigan Road<br> Atherton", "postcode": "M46 0LW", "town": "Atherton", "phone": "01942 886883", "id": 50247, "region": "North West" }, "geometry": { "type": "Point", "coordinates": [ -2.329284, 53.558525 ] } },
{ "type": "Feature", "properties": { "lat": 53.56796, "lon": -2.114619, "name": "D Murphy t\/a Hind Heath Garage", "address": "Hind Heath Road<br> Sandbach<br> Cheshire", "postcode": "CW11 3LZ", "town": "Sandbach", "phone": "01270 762741", "id": 50249, "region": "North West" }, "geometry": { "type": "Point", "coordinates": [ -2.114619, 53.56796 ] } },
{ "type": "Feature", "properties": { "lat": 53.35784, "lon": -3.03834, "name": "Bennet Bros Recycling", "address": "29 Cornbrook Road<br> Manchester", "postcode": "M15 4WB", "town": "Manchester", "phone": "N\/A", "id": 50251, "region": "North West" }, "geometry": { "type": "Point", "coordinates": [ -3.03834, 53.35784 ] } },
{ "type": "Feature", "properties": { "lat": 53.47097, "lon": -2.195805, "name": "J Davidson (Broadheath) Ltd", "address": "15 Viaduct Rd.<br> Broadheath<br> Altrincham", "postcode": "WA14 5DU", "town": "Altrincham", "phone": "0161 928 9981", "id": 50252, "region": "North West" }, "geometry": { "type": "Point", "coordinates": [ -2.195805, 53.47097 ] } },
{ "type": "Feature", "properties": { "lat": 53.483543, "lon": -2.057586, "name": "C Waters t\/a Vehicle Reclamation", "address": "Sion Street<br> Radcliffe<br> Manchester", "postcode": "M26 3SB", "town": "Manchester", "phone": "0161 7234630", "id": 50254, "region": "North West" }, "geometry": { "type": "Point", "coordinates": [ -2.057586, 53.483543 ] } },
{ "type": "Feature", "properties": { "lat": 53.594264, "lon": -2.270407, "name": "Burnedge Motors and Allparts", "address": "Mossdown Road<br> Royton<br> Oldham", "postcode": "OL2 6HS", "town": "Oldham", "phone": "01706 840687", "id": 50260, "region": "North West" }, "geometry": { "type": "Point", "coordinates": [ -2.270407, 53.594264 ] } },
{ "type": "Feature", "properties": { "lat": 53.512872, "lon": -2.473685, "name": "J &S Waddington t\/a Wirral Spares", "address": "400\/408 Borough Road<br> Birkenhead<br> Wirral", "postcode": "L41 2UZ", "town": "Birkenhead", "phone": "0151 6512228", "id": 50262, "region": "North West" }, "geometry": { "type": "Point", "coordinates": [ -2.473685, 53.512872 ] } },
{ "type": "Feature", "properties": { "lat": 53.57496, "lon": -2.446439, "name": "TDX Ltd", "address": "Southside Railway  Sidings<br> Gorton Rd.<br> Ardwick<br> Manchester", "postcode": "M12 5DX", "town": "Manchester", "phone": null, "id": 50264, "region": "North West" }, "geometry": { "type": "Point", "coordinates": [ -2.446439, 53.57496 ] } },
{ "type": "Feature", "properties": { "lat": 53.461415, "lon": -2.331414, "name": "S Parkinson & P Hallas t\/a Autosalvage", "address": "Atlas Works<br> Robinson St.<br> Stalybridge", "postcode": "SK15 1TH", "town": "Stalybridge", "phone": "0161 3031313", "id": 50266, "region": "North West" }, "geometry": { "type": "Point", "coordinates": [ -2.331414, 53.461415 ] } },
{ "type": "Feature", "properties": { "lat": 53.594264, "lon": -2.270407, "name": "JSM Contract Salvage Ltd", "address": "Gate 4<br> Pimhole Fold<br> Bury", "postcode": "BL9 7ES", "town": "Bury", "phone": "0161 7615859", "id": 50268, "region": "North West" }, "geometry": { "type": "Point", "coordinates": [ -2.270407, 53.594264 ] } },
{ "type": "Feature", "properties": { "lat": 53.4381, "lon": -2.996274, "name": "Maxilead Ltd", "address": "Parr Bridge Works<br> Mossley Common Road<br> Tyldsley<br> Manchester", "postcode": "M29 8PR", "town": "Manchester", "phone": "0161 7905105", "id": 50269, "region": "North West" }, "geometry": { "type": "Point", "coordinates": [ -2.996274, 53.4381 ] } },
{ "type": "Feature", "properties": { "lat": 53.38184, "lon": -2.593229, "name": "K Hanif t\/a Japanese Auto Parts", "address": "65A Gilnow Lane<br> Bolton", "postcode": "BL3 5EL", "town": "Bolton", "phone": "N\/A", "id": 50270, "region": "North West" }, "geometry": { "type": "Point", "coordinates": [ -2.593229, 53.38184 ] } },
{ "type": "Feature", "properties": { "lat": 53.512009, "lon": -2.545315, "name": "Stretford Car Breakers\/Fordbitz", "address": "142 Moss Rd.<br> Stretford<br> Manchester", "postcode": "M32 0AX", "town": "Manchester", "phone": "0161 865 8841", "id": 50271, "region": "North West" }, "geometry": { "type": "Point", "coordinates": [ -2.545315, 53.512009 ] } },
{ "type": "Feature", "properties": { "lat": 53.441557, "lon": -2.994849, "name": "A1 Marks Motor Spares", "address": "Gate 4A<br> Pimhole Fold<br> Bury", "postcode": "BL9 7ET", "town": "Bury", "phone": "0161 7615223", "id": 50272, "region": "North West" }, "geometry": { "type": "Point", "coordinates": [ -2.994849, 53.441557 ] } },
{ "type": "Feature", "properties": { "lat": 53.444855, "lon": -2.191589, "name": "A Swann t\/a One Offs", "address": "Brunswick Place<br> Liverpool", "postcode": "L20 8DH", "town": "Liverpool", "phone": null, "id": 50273, "region": "North West" }, "geometry": { "type": "Point", "coordinates": [ -2.191589, 53.444855 ] } },
{ "type": "Feature", "properties": { "lat": 53.581355, "lon": -2.421749, "name": "VFP Ltd", "address": "Unit 1a<br> Chester Rd<br> Warrington", "postcode": "WA4 6BE", "town": "Warrington", "phone": "01925 655988", "id": 50274, "region": "North West" }, "geometry": { "type": "Point", "coordinates": [ -2.421749, 53.581355 ] } },
{ "type": "Feature", "properties": { "lat": 53.545, "lon": -2.409735, "name": "A Cleworth & Sons", "address": "Wildes Brickyard<br> Leigh Road<br> Hindley Green<br> Wigan", "postcode": "WN2 4XL", "town": "Wigan", "phone": "01942 255058", "id": 50278, "region": "North West" }, "geometry": { "type": "Point", "coordinates": [ -2.409735, 53.545 ] } },
{ "type": "Feature", "properties": { "lat": 53.527514, "lon": -2.113375, "name": "Brasenose Motor Recycling Ltd", "address": "6-14 Brasenose Rd<br> Bootle<br> Liverpool", "postcode": "L20 8HG", "town": "Liverpool", "phone": "0151 9331994", "id": 50279, "region": "North West" }, "geometry": { "type": "Point", "coordinates": [ -2.113375, 53.527514 ] } },
{ "type": "Feature", "properties": { "lat": 53.585794, "lon": -2.419105, "name": "Parts Line", "address": "Marquis Street<br> Levenshulme<br> Manchester", "postcode": "M19 3JZ", "town": "Manchester", "phone": "0161 2489090", "id": 50280, "region": "North West" }, "geometry": { "type": "Point", "coordinates": [ -2.419105, 53.585794 ] } },
{ "type": "Feature", "properties": { "lat": 53.489645, "lon": -2.045479, "name": "Dekron Motor Salvage", "address": "Mill Street Industrial Estate<br> Mill Street<br> Bolton", "postcode": "BL1 1UG", "town": "Bolton", "phone": "01204 388543", "id": 50281, "region": "North West" },