{
"type": "FeatureCollection",
"crs": { "type": "name", "properties": { "name": "urn:ogc:def:crs:OGC:1.3:CRS84" } },
                                                                                
"features": [
{ "type": "Feature", "properties": { "lat": 51.275655, "lon": 1.34186, "name": "Userve Ltd t\/a Copart UK", "address": "Ramsgate Road<br> Sandwich<br> Kent", "postcode": "CT13 9ND", "town": "Sandwich", "phone": "01234 762207", "id": 10020, "region": "South East" }, "geometry": { "type": "Point", "coordinates": [ 1.34186, 51.275655 ] } },
{ "type": "Feature", "properties": { "lat": 51.151308, "lon": 0.400162, "name": "Scrapco Metal Recycling Ltd", "address": "Longfield Farm<br> Old Hay<br> Brenchley<br> Paddock Wood<br> Kent", "postcode": "TN12 7DG", "town": "Paddock Wood", "phone": "0870 241 4420", "id": 10029, "region": "South East" }, "geometry": { "type": "Point", "coordinates": [ 0.400162, 51.151308 ] } },
{ "type": "Feature", "properties": { "lat": 51.347482, "lon": 0.748863, "name": "London & Kent Metals", "address": "Unit 9<br> Symmonds Drive<br> Eurolink Ind Estate<br> Sittingbourne", "postcode": "ME10 3RY", "town": "Sittingbourne", "phone": "01795 439393", "id": 10050, "region": "South East" }, "geometry": { "type": "Point", "coordinates": [ 0.748863, 51.347482 ] } },
{ "type": "Feature", "properties": { "lat": 51.361007, "lon": 0.721646, "name": "S & P Motors T\/A Bobbing Car Breakers", "address": "Sheppey Way<br> Sittingbourne<br> Kent", "postcode": "ME9 8QX", "town": "Sittingbourne", "phone": "01795 430703", "id": 10067, "region": "South East" }, "geometry": { "type": "Point", "coordinates": [ 0.721646, 51.361007 ] } },
{ "type": "Feature", "properties": { "lat": 51.38998, "lon": 0.4895, "name": "All Vehicle Recycling", "address": "Unit 6 Morgan's Timber Yard<br> Knight Road<br> Strood<br> Rochester", "postcode": "ME2 2LS", "town": "Rochester", "phone": "01634 294141", "id": 10077, "region": "South East" }, "geometry": { "type": "Point", "coordinates": [ 0.4895, 51.38998 ] } },
{ "type": "Feature", "properties": { "lat": 51.358605, "lon": 1.44106, "name": "BG Motors", "address": "Unit 4-10<br> Dane Valley Ind Est<br> Dane Valley Road<br> Broadstairs", "postcode": "CT10 3JJ", "town": "Broadstairs", "phone": "01843 860001", "id": 10094, "region": "South East" }, "geometry": { "type": "Point", "coordinates": [ 1.44106, 51.358605 ] } },
{ "type": "Feature", "properties": { "lat": 51.450145, "lon": 0.308545, "name": "Ace Car breakers", "address": "Plot 16<br> Manorway Business Park<br> Manorway<br> Swanscombe<br> Kent", "postcode": "DA10 0PP", "town": "Swanscombe", "phone": "01322 383363", "id": 10095, "region": "South East" }, "geometry": { "type": "Point", "coordinates": [ 0.308545, 51.450145 ] } },
{ "type": "Feature", "properties": { "lat": 51.2649, "lon": 0.523525, "name": "CMS (Kent) Ltd", "address": "Bentletts Yard<br> Claygate Road<br> Laddingford<br> Kent", "postcode": "ME15 6QE", "town": "Laddingford", "phone": null, "id": 10098, "region": "South East" }, "geometry": { "type": "Point", "coordinates": [ 0.523525, 51.2649 ] } },
{ "type": "Feature", "properties": { "lat": 51.395615, "lon": 0.5161, "name": "European Metal Recycling Ltd", "address": "Unit 12B Whitewall Road<br>Medway City Estate<br> Rochester", "postcode": "ME2 4DZ", "town": "Rochester", "phone": "01634 726888", "id": 10099, "region": "South East" }, "geometry": { "type": "Point", "coordinates": [ 0.5161, 51.395615 ] } },
{ "type": "Feature", "properties": { "lat": 50.830427, "lon": -0.213247, "name": "HCS Ramparts", "address": "137 Wellington Road<br> Portslade<br> Brighton<br> West Sussex", "postcode": "BN41 1DN", "town": "Brighton", "phone": "01273 424127", "id": 10132, "region": "South East" }, "geometry": { "type": "Point", "coordinates": [ -0.213247, 50.830427 ] } },
{ "type": "Feature", "properties": { "lat": 50.835275, "lon": -0.485444, "name": "Swift Salvage", "address": "Unit 9<br> Arundel Road<br> Angmering<br> West Sussex", "postcode": "BN16 4ET", "town": "Angmering", "phone": "01903 856568", "id": 10134, "region": "South East" }, "geometry": { "type": "Point", "coordinates": [ -0.485444, 50.835275 ] } },
{ "type": "Feature", "properties": { "lat": 50.82828, "lon": -0.484984, "name": "VW & Audi New and Used Parts Centre", "address": "New Place Nursery<br> Arundel Road<br> Angmering<br> West Sussex", "postcode": "BN16 4ET", "town": "Angmering", "phone": "01903 850924", "id": 10135, "region": "South East" }, "geometry": { "type": "Point", "coordinates": [ -0.484984, 50.82828 ] } },
{ "type": "Feature", "properties": { "lat": 50.823745, "lon": -0.332684, "name": "Peugeot and Citroen Recycling (P.C.R)", "address": "Chartwell Road<br> Lancing Business Park<br> Lancing", "postcode": "BN15 8TU", "town": "Lancing", "phone": "01903 767676", "id": 10136, "region": "South East" }, "geometry": { "type": "Point", "coordinates": [ -0.332684, 50.823745 ] } },
{ "type": "Feature", "properties": { "lat": 50.795035, "lon": 0.046175, "name": "G Worms t\/a Brighton Motorama", "address": "North Estate<br> New Road<br> Newhaven<br> East Sussex", "postcode": "BN9 0EH", "town": "Newhaven", "phone": "01273 517160", "id": 10139, "region": "South East" }, "geometry": { "type": "Point", "coordinates": [ 0.046175, 50.795035 ] } },
{ "type": "Feature", "properties": { "lat": 50.723728, "lon": -1.296019, "name": "Cliftongrade Ltd", "address": "Stag Lane<br> Newport<br> Isle of Wight", "postcode": "PO30 5TS", "town": "Isle of Wight", "phone": null, "id": 10239, "region": "South East" }, "geometry": { "type": "Point", "coordinates": [ -1.296019, 50.723728 ] } },
{ "type": "Feature", "properties": { "lat": 50.805521, "lon": -0.972002, "name": "Howards Car Spares", "address": "2 Mill Rise Lane<br> Hayling Island<br> Hampshire", "postcode": "PO11 0QG", "town": "Hayling Island", "phone": "023 92467467", "id": 10241, "region": "South East" }, "geometry": { "type": "Point", "coordinates": [ -0.972002, 50.805521 ] } },
{ "type": "Feature", "properties": { "lat": 50.819445, "lon": -1.053139, "name": "C D Jordan & Sons Ltd", "address": "Dundas Spur<br> Dundas Lane<br> Portsmouth<br> Hampshire", "postcode": "PO3 5NX", "town": "Portsmouth", "phone": "023 92661391", "id": 10242, "region": "South East" }, "geometry": { "type": "Point", "coordinates": [ -1.053139, 50.819445 ] } },
{ "type": "Feature", "properties": { "lat": 50.90709, "lon": -1.016549, "name": "Ring and Bring", "address": "231 Lovedean Lane<br> Lovedean<br> Waterlooville<br> Hants", "postcode": "PO8 9RX", "town": "Waterlooville", "phone": "02392 594925", "id": 10244, "region": "South East" }, "geometry": { "type": "Point", "coordinates": [ -1.016549, 50.90709 ] } },
{ "type": "Feature", "properties": { "lat": 50.91196, "lon": -1.387559, "name": "Metal Processing Ltd", "address": "10 Princes Street<br> Northam<br> Southampton<br> Hampshire", "postcode": "SO14 5RP", "town": "Southampton", "phone": "02380 333 271", "id": 10247, "region": "South East" }, "geometry": { "type": "Point", "coordinates": [ -1.387559, 50.91196 ] } },
{ "type": "Feature", "properties": { "lat": 50.943363, "lon": -1.327393, "name": "Roddington Forge Ltd", "address": "Allington Lane<br> West End<br> Southampton<br> Hampshire", "postcode": "SO30 3HQ", "town": "Southampton", "phone": "02380 470720", "id": 10282, "region": "South East" }, "geometry": { "type": "Point", "coordinates": [ -1.327393, 50.943363 ] } },
{ "type": "Feature", "properties": { "lat": 51.38938, "lon": 0.49524, "name": "T Thorne T\/A Molly's Car Breakers", "address": "Temple Boat Yard<br> Knight Road<br> Strood<br> Kent", "postcode": "ME2 2AG", "town": "Rochester", "phone": "01634 718051 or 07770882699", "id": 10300, "region": "South East" }, "geometry": { "type": "Point", "coordinates": [ 0.49524, 51.38938 ] } },
{ "type": "Feature", "properties": { "lat": 51.414805, "lon": 0.753845, "name": "Queenborough Car Breakers", "address": "Unit 1<br> Sheppey Plant Estate<br> Rushenden Road<br> Queenborough", "postcode": "ME11 5HL", "town": "Queenborough", "phone": "01795 660011", "id": 10301, "region": "South East" }, "geometry": { "type": "Point", "coordinates": [ 0.753845, 51.414805 ] } },
{ "type": "Feature", "properties": { "lat": 51.34837, "lon": 0.73644, "name": "Kent Auto Salvage Ltd", "address": "Gas Road<br> Church Marshes<br> Sittingbourne", "postcode": "ME10 2QE", "town": "Sittingbourne", "phone": "01795 424519", "id": 10302, "region": "South East" }, "geometry": { "type": "Point", "coordinates": [ 0.73644, 51.34837 ] } },
{ "type": "Feature", "properties": { "lat": 51.158436, "lon": 0.289185, "name": "Mid Kent Breakers", "address": "North Farm Lane<br> North Farm Ind Est<br> Tunbridge Wells<br> Kent", "postcode": "TN2 3EE", "town": "Tunbridge Wells", "phone": "01892 511553", "id": 10303, "region": "South East" }, "geometry": { "type": "Point", "coordinates": [ 0.289185, 51.158436 ] } },
{ "type": "Feature", "properties": { "lat": 51.103548, "lon": 0.712418, "name": "Ashford Vauxhall Spares", "address": "2 Marten Park<br> Marten Lane<br> High Halden<br> Ashford<br> Kent", "postcode": "TN26 3JP", "town": "Ashford", "phone": "01233 820135", "id": 10304, "region": "South East" }, "geometry": { "type": "Point", "coordinates": [ 0.712418, 51.103548 ] } },
{ "type": "Feature", "properties": { "lat": 51.211515, "lon": 0.790926, "name": "I Brennan t\/a Bridgend Recycling", "address": "BMW Spares<br> Bridge End Farm<br>  Little Chart<br> Charing<br> Kent", "postcode": "TN27 0ER", "town": "Charing", "phone": "01233 713447", "id": 10307, "region": "South East" }, "geometry": { "type": "Point", "coordinates": [ 0.790926, 51.211515 ] } },
{ "type": "Feature", "properties": { "lat": 51.447349, "lon": 0.199114, "name": "Erith Commercials", "address": "78 Dartford Road<br> Dartford Road<br> Dartford<br> Kent", "postcode": "DA1 3ER", "town": "Dartford", "phone": "01322 290921", "id": 10308, "region": "South East" }, "geometry": { "type": "Point", "coordinates": [ 0.199114, 51.447349 ] } },
{ "type": "Feature", "properties": { "lat": 51.339253, "lon": 1.424778, "name": "Ford-It-Spares", "address": "67 Hereson Road<br> Ramsgate<br> Kent", "postcode": "CT11 7DS", "town": "Ramsgate", "phone": "01843 591616", "id": 10310, "region": "South East" }, "geometry": { "type": "Point", "coordinates": [ 1.424778, 51.339253 ] } },
{ "type": "Feature", "properties": { "lat": 51.072738, "lon": 0.911115, "name": "H Ripley & Co", "address": "Rowling Street<br> Bilsington<br> Ashford<br> Kent", "postcode": "TN25 7JD", "town": "Ashford", "phone": "01323 440672", "id": 10315, "region": "South East" }, "geometry": { "type": "Point", "coordinates": [ 0.911115, 51.072738 ] } },
{ "type": "Feature", "properties": { "lat": 51.115769, "lon": 1.164715, "name": "Hawkinge Vehicle Services", "address": "Aerodrome Industrial Complex<br> Aerodrome Rd<br> Hawkinge<br> Folkestone<br> Kent", "postcode": "CT18 7AG", "town": "Folkestone", "phone": "01303 893546", "id": 10318, "region": "South East" }, "geometry": { "type": "Point", "coordinates": [ 1.164715, 51.115769 ] } },
{ "type": "Feature", "properties": { "lat": 50.950348, "lon": 0.903753, "name": "Lydd Car Breakers", "address": "Dengemarsh Rd<br> Lydd<br> Kent", "postcode": "TN29 9JH", "town": "Lydd", "phone": "01797 344286", "id": 10319, "region": "South East" }, "geometry": { "type": "Point", "coordinates": [ 0.903753, 50.950348 ] } },
{ "type": "Feature", "properties": { "lat": 51.289115, "lon": 1.094095, "name": "Ling Metals Ltd", "address": "Parham Road<br> Canterbury<br> Kent", "postcode": "CT1 1LQ", "town": "Canterbury", "phone": "01227 788188", "id": 10322, "region": "South East" }, "geometry": { "type": "Point", "coordinates": [ 1.094095, 51.289115 ] } },
{ "type": "Feature", "properties": { "lat": 51.151308, "lon": 0.400162, "name": "J R Car Spares", "address": "Oast House Farm<br> Old Hay<br> Brenchley<br> Tonbridge<br> Kent", "postcode": "TN12 7DG", "town": "Tonbridge", "phone": "01892 833012", "id": 10323, "region": "South East" }, "geometry": { "type": "Point", "coordinates": [ 0.400162, 51.151308 ] } },
{ "type": "Feature", "properties": { "lat": 51.39138, "lon": 0.484995, "name": "J & S Moore T\/A The Vauxhall Warehouse", "address": "R\/O 15-17 Cedar Road<br> Strood<br> Kent", "postcode": "ME2 2HB", "town": "Rochester", "phone": "01304 812288", "id": 10327, "region": "South East" }, "geometry": { "type": "Point", "coordinates": [ 0.484995, 51.39138 ] } },
{ "type": "Feature", "properties": { "lat": 50.911125, "lon": 0.576695, "name": "Jason Ripley", "address": "Hole Farm<br> Westfield Lane<br> Hastings", "postcode": "TN35 4SA", "town": "Hastings", "phone": "01323 440672", "id": 10330, "region": "South East" }, "geometry": { "type": "Point", "coordinates": [ 0.576695, 50.911125 ] } },
{ "type": "Feature", "properties": { "lat": 51.414805, "lon": 0.753845, "name": "Sheppey Motor Salvage", "address": "Rushenden Road<br> Queenborough<br> Sheerness<br> Isle of Sheppey<br> Kent", "postcode": "ME11 5HL", "town": "Isle of Sheppey", "phone": "01795 669 898", "id": 10343, "region": "South East" }, "geometry": { "type": "Point", "coordinates": [ 0.753845, 51.414805 ] } },
{ "type": "Feature", "properties": { "lat": 51.179701, "lon": 0.39354, "name": "CMS (Kent) Ltd", "address": "Ledger Works<br> Queen Street<br> Paddock Wood<br> Kent", "postcode": "TN12 6NN", "town": "Paddock Wood", "phone": null, "id": 10352, "region": "South East" }, "geometry": { "type": "Point", "coordinates": [ 0.39354, 51.179701 ] } },
{ "type": "Feature", "properties": { "lat": 51.35778, "lon": 1.28521, "name": "Ampthill Metal Co Ltd", "address": "The Recycling Centre<br> Woodchurch Road<br> Manston<br> Birchington", "postcode": "CT7 0HL", "town": "Birchington", "phone": "01843 823554", "id": 10381, "region": "South East" }, "geometry": { "type": "Point", "coordinates": [ 1.28521, 51.35778 ] } },
{ "type": "Feature", "properties": { "lat": 51.427021, "lon": 0.283388, "name": "A2 Car Breakers", "address": "Oakdene<br> Watling Street<br> Bean<br> Nr Dartford<br> Kent", "postcode": "DA2 8AH", "town": "Dartford", "phone": "07831 321833", "id": 10386, "region": "South East" }, "geometry": { "type": "Point", "coordinates": [ 0.283388, 51.427021 ] } },
{ "type": "Feature", "properties": { "lat": 50.654203, "lon": -1.281586, "name": "Carspares T\/A Island Motor Salvage", "address": "Pritchetts Way<br> Rookley<br> Isle Of Wight", "postcode": "PO38 3LT", "town": "Isle of Wight", "phone": "01983 721555", "id": 19369, "region": "South East" }, "geometry": { "type": "Point", "coordinates": [ -1.281586, 50.654203 ] } },
{ "type": "Feature", "properties": { "lat": 51.426201, "lon": 0.228671, "name": "JC Autobreakers", "address": "Hawley Road<br> Dartford", "postcode": "DA2 7RF", "town": "Dartford", "phone": "01322 271059", "id": 19386, "region": "South East" }, "geometry": { "type": "Point", "coordinates": [ 0.228671, 51.426201 ] } },
{ "type": "Feature", "properties": { "lat": 51.44217, "lon": 0.39114, "name": "Gravesend Metals and Recycling Ltd", "address": "Wharf Road<br> Denton Ind Est<br> Gravesend", "postcode": "DA12 2RU", "town": "Gravesend", "phone": "01474 361244", "id": 19390, "region": "South East" }, "geometry": { "type": "Point", "coordinates": [ 0.39114, 51.44217 ] } },
{ "type": "Feature", "properties": { "lat": 51.39342, "lon": 0.49144, "name": "Strood Car and Commercial", "address": "Knight Road<br> Strood<br> Rochester", "postcode": "ME2 2AH", "town": "Rochester", "phone": "01634 295522", "id": 19410, "region": "South East" }, "geometry": { "type": "Point", "coordinates": [ 0.49144, 51.39342 ] } },
{ "type": "Feature", "properties": { "lat": 51.379065, "lon": 0.758525, "name": "European Metal Recycling Ltd", "address": "Ridham Yard<br> Ridham Dock<br> Sittingbourne", "postcode": "ME9 8SR", "town": "Sittingbourne", "phone": "01795 477481", "id": 19428, "region": "South East" }, "geometry": { "type": "Point", "coordinates": [ 0.758525, 51.379065 ] } },
{ "type": "Feature", "properties": { "lat": 51.274772, "lon": 1.338466, "name": "Zen Car Factors", "address": "Richborough Castle Road<br> Sandwich", "postcode": "CT13 9JL", "town": "Sandwich", "phone": "01227 713850", "id": 19458, "region": "South East" }, "geometry": { "type": "Point", "coordinates": [ 1.338466, 51.274772 ] } },
{ "type": "Feature", "properties": { "lat": 51.202878, "lon": 1.380044, "name": "DIY Motorist", "address": "Ellens Road<br> Deal", "postcode": "CT14 9JJ", "town": "Deal", "phone": "01304 366664", "id": 19464, "region": "South East" }, "geometry": { "type": "Point", "coordinates": [ 1.380044, 51.202878 ] } },
{ "type": "Feature", "properties": { "lat": 51.38351, "lon": 0.305345, "name": "Hartley Breakers", "address": "Hartley Bottom Road<br> Hartley Bottom<br> Hartley<br> Kent", "postcode": "DA3 8LJ", "town": "Hartley", "phone": "01474 872418", "id": 19481, "region": "South East" }, "geometry": { "type": "Point", "coordinates": [ 0.305345, 51.38351 ] } },
{ "type": "Feature", "properties": { "lat": 51.29167, "lon": 0.376203, "name": "W P Commercials Ltd", "address": "Fre-mell Farm<br> Comp Lane<br> Offham<br> West Malling<br> Kent", "postcode": "ME19 5PP", "town": "West Malling", "phone": "01732 845027", "id": 19491, "region": "South East" }, "geometry": { "type": "Point", "coordinates": [ 0.376203, 51.29167 ] } },
{ "type": "Feature", "properties": { "lat": 51.30364, "lon": 0.48011, "name": "Aylesford Metal Co Ltd", "address": "Millhall<br> Aylesford<br> Maidstone<br> Kent", "postcode": "ME20 7JN", "town": "Maidstone", "phone": "01622 715081", "id": 19497, "region": "South East" }, "geometry": { "type": "Point", "coordinates": [ 0.48011, 51.30364 ] } },
{ "type": "Feature", "properties": { "lat": 51.29666, "lon": 0.56768, "name": "Detling Autobreakers", "address": "Detling Aerodrome Estate<br> Detling<br> Maidstone", "postcode": "ME14 3HU", "town": "Maidstone", "phone": "01622 630496", "id": 19521, "region": "South East" }, "geometry": { "type": "Point", "coordinates": [ 0.56768, 51.29666 ] } },
{ "type": "Feature", "properties": { "lat": 51.183768, "lon": 0.420094, "name": "Charles Trent Ltd", "address": "Willow Lane<br> Paddock Wood<br> Tonbridge<br> Kent", "postcode": "TN12 6NL", "town": "Tonbridge", "phone": "01892 836396", "id": 19534, "region": "South East" }, "geometry": { "type": "Point", "coordinates": [ 0.420094, 51.183768 ] } },
{ "type": "Feature", "properties": { "lat": 51.12781, "lon": 0.863335, "name": "H. Ripley & Co", "address": "Ellingham Farm<br> Ashford", "postcode": "TN23 6LR", "town": "Ashford", "phone": "01233 620410", "id": 19550, "region": "South East" }, "geometry": { "type": "Point", "coordinates": [ 0.863335, 51.12781 ] } },
{ "type": "Feature", "properties": { "lat": 51.120375, "lon": 0.704275, "name": "G M Woodgate & Son", "address": "High Halden<br> Ashford<br> Kent", "postcode": "TN26 3HX", "town": "Ashford", "phone": "01233 850303 \/ 07762 084223", "id": 19551, "region": "South East" }, "geometry": { "type": "Point", "coordinates": [ 0.704275, 51.120375 ] } },
{ "type": "Feature", "properties": { "lat": 50.94544, "lon": 0.31383, "name": "Ambrose Porter", "address": "Little Rigford Farm<br> Heathfield", "postcode": "TN21 9LR", "town": "Heathfield", "phone": "01435 830226", "id": 19595, "region": "South East" }, "geometry": { "type": "Point", "coordinates": [ 0.31383, 50.94544 ] } },
{ "type": "Feature", "properties": { "lat": 50.89235, "lon": 0.64337, "name": "K Bartlett", "address": "Five Acre Wood<br> Rock Lane<br> Hastings", "postcode": "TN35 4NY", "town": "Hastings", "phone": "07702 547904", "id": 19600, "region": "South East" }, "geometry": { "type": "Point", "coordinates": [ 0.64337, 50.89235 ] } },
{ "type": "Feature", "properties": { "lat": 50.960105, "lon": 0.31283, "name": "MDJ Light Bros", "address": "Punnetts Town<br>Hazlemere<br> Heathfield<br> East Sussex", "postcode": "TN21 9LR", "town": "Heathfield", "phone": "01435 830 699", "id": 19605, "region": "South East" }, "geometry": { "type": "Point", "coordinates": [ 0.31283, 50.960105 ] } },
{ "type": "Feature", "properties": { "lat": 50.784689, "lon": 0.301599, "name": "Finmere Autospares", "address": "Finmere Close<br> Eastbourne<br> East Sussex", "postcode": "BN22 8QG", "town": "Eastbourne", "phone": "01323 724873", "id": 19622, "region": "South East" }, "geometry": { "type": "Point", "coordinates": [ 0.301599, 50.784689 ] } },
{ "type": "Feature", "properties": { "lat": 50.865167, "lon": 0.027678, "name": "Light Brothers", "address": "Greystone Quarry<br> Southerham<br> Lewes <br> East Sussex", "postcode": "BN8 6JN", "town": "Lewes", "phone": "01273 476862", "id": 19635, "region": "South East" }, "geometry": { "type": "Point", "coordinates": [ 0.027678, 50.865167 ] } },
{ "type": "Feature", "properties": { "lat": 50.84767, "lon": 0.276394, "name": "M J Clarke T\/A Metal Recycling Ltd", "address": "Elmsfield<br> Downash<br> Hailsham", "postcode": "BN27 2RG", "town": "Hailsham", "phone": "01323 840287", "id": 19637, "region": "South East" }, "geometry": { "type": "Point", "coordinates": [ 0.276394, 50.84767 ] } },
{ "type": "Feature", "properties": { "lat": 50.865385, "lon": 0.25652, "name": "Thomas Killick", "address": "Littlewood<br> Hempstead Lane<br> Hailsham<br> East Sussex", "postcode": "BN27 3PR", "town": "Hailsham", "phone": "01323 840284", "id": 19645, "region": "South East" }, "geometry": { "type": "Point", "coordinates": [ 0.25652, 50.865385 ] } },
{ "type": "Feature", "properties": { "lat": 50.860765, "lon": 0.248835, "name": "H Ripley + Co", "address": "Diplocks Way<br> Hailsham<br> East Sussex", "postcode": "BN27 3WA", "town": "Hailsham", "phone": "01323 440672", "id": 19649, "region": "South East" }, "geometry": { "type": "Point", "coordinates": [ 0.248835, 50.860765 ] } },
{ "type": "Feature", "properties": { "lat": 50.818492, "lon": -0.377435, "name": "Worthing Ford Spares", "address": "10a Cross Street<br> Worthing<br> West Sussex", "postcode": "BN11 1UP", "town": "Worthing", "phone": "01903 234422", "id": 19654, "region": "South East" }, "geometry": { "type": "Point", "coordinates": [ -0.377435, 50.818492 ] } },
{ "type": "Feature", "properties": { "lat": 51.021853, "lon": -0.458969, "name": "Adversane Vehicle Breakers", "address": "Bridge Road<br> Adversane<br> Billingshurst<br> West Sussex", "postcode": "RH14 9EG", "town": "Billingshurst", "phone": "01403 783680", "id": 19658, "region": "South East" }, "geometry": { "type": "Point", "coordinates": [ -0.458969, 51.021853 ] } },
{ "type": "Feature", "properties": { "lat": 50.841385, "lon": -0.244089, "name": "European Metal Recycling Ltd (Cooper Barnes Metals Ltd)", "address": "Kingston Wharf<br> Brighton Road<br> Shoreham-by-Sea<br> West Sussex", "postcode": "BN43 6RN", "town": "Shoreham-by-Sea", "phone": "01273 452848", "id": 19694, "region": "South East" }, "geometry": { "type": "Point", "coordinates": [ -0.244089, 50.841385 ] } },
{ "type": "Feature", "properties": { "lat": 50.98352, "lon": -0.959018, "name": "Huntley Bros. Ltd", "address": "12 Greenaway<br> Buriton<br> Petersfield<br> Hants", "postcode": "GU31 5SX", "town": "Petersfield", "phone": null, "id": 19742, "region": "South East" }, "geometry": { "type": "Point", "coordinates": [ -0.959018, 50.98352 ] } },
{ "type": "Feature", "properties": { "lat": 50.84209, "lon": -0.661444, "name": "S.R.C. Recycling Ltd", "address": "Fontwell Avenue<br> Eastergate<br> West Sussex", "postcode": "PO20 3RU", "town": "Chichester", "phone": "01243 543080", "id": 19748, "region": "South East" }, "geometry": { "type": "Point", "coordinates": [ -0.661444, 50.84209 ] } },
{ "type": "Feature", "properties": { "lat": 50.836165, "lon": -0.775429, "name": "M & J Spares and Repairs", "address": "Court 7<br> Gravel Lane<br> Quarry Lane<br> Chichester", "postcode": "PO19 8PQ", "town": "Chichester", "phone": "01943 536606", "id": 19750, "region": "South East" }, "geometry": { "type": "Point", "coordinates": [ -0.775429, 50.836165 ] } },
{ "type": "Feature", "properties": { "lat": 50.7933, "lon": -0.829949, "name": "R M Pettett Limited", "address": "The Old Coal Yard<br> Jury Lane<br> Sidlesham Common<br> Chichester", "postcode": "PO20 7PX", "town": "Chichester", "phone": "01243 641838", "id": 19751, "region": "South East" }, "geometry": { "type": "Point", "coordinates": [ -0.829949, 50.7933 ] } },
{ "type": "Feature", "properties": { "lat": 50.836812, "lon": -0.722296, "name": "P Stanley + Son", "address": "Woodhorn Crossing<br> Oving<br> Chichester", "postcode": "PO20 2DA", "town": "Chichester", "phone": "01243 789275", "id": 19753, "region": "South East" }, "geometry": { "type": "Point", "coordinates": [ -0.722296, 50.836812 ] } },
{ "type": "Feature", "properties": { "lat": 50.84515, "lon": -0.89308, "name": "G+R Harris", "address": "Oaks Yard<br> Main Road<br> Nutborne<br> Nr Chichester<br> W Sussex", "postcode": "PO18 8RL", "town": "Chichester", "phone": "01243 372866", "id": 19755, "region": "South East" }, "geometry": { "type": "Point", "coordinates": [ -0.89308, 50.84515 ] } },
{ "type": "Feature", "properties": { "lat": 50.723728, "lon": -1.296019, "name": "C. D. Jordans Ltd", "address": "Stag Lane<br> Newport<br> Isle of Wight", "postcode": "PO30 5TS", "town": "Isle of Wight", "phone": "01983 533080", "id": 19780, "region": "South East" }, "geometry": { "type": "Point", "coordinates": [ -1.296019, 50.723728 ] } },
{ "type": "Feature", "properties": { "lat": 50.758121, "lon": -1.297866, "name": "Cliftongrade", "address": "2 Myrtle Yard<br> 262 Newport Road<br> Somerton<br> Cowes<br> Isle of Wight", "postcode": "PO31 8PE", "town": "Isle of Wight", "phone": "01983 292611", "id": 19781, "region": "South East" }, "geometry": { "type": "Point", "coordinates": [ -1.297866, 50.758121 ] } },
{ "type": "Feature", "properties": { "lat": 51.22979, "lon": -1.338904, "name": "J Hirst Ltd", "address": "Hurstborne Priors<br> Whitchurch<br> Hampshire", "postcode": "RG28 7RT", "town": "Whitchurch", "phone": "01264 738278", "id": 19802, "region": "South East" }, "geometry": { "type": "Point", "coordinates": [ -1.338904, 51.22979 ] } },
{ "type": "Feature", "properties": { "lat": 51.117645, "lon": -1.639339, "name": "Richard Noon Carbreakers", "address": "Linden Dairy<br> Hollom Down Road<br> Lopcombe<br> Salisbury", "postcode": "SP5 1BP", "town": "Salisbury", "phone": "01264 781329", "id": 19818, "region": "South East" }, "geometry": { "type": "Point", "coordinates": [ -1.639339, 51.117645 ] } },
{ "type": "Feature", "properties": { "lat": 50.93412, "lon": -1.20756, "name": "C Morgans and Sons (Motor and Spares) Ltd", "address": "Solomans Lane<br> Waltham Chase<br> Winchester", "postcode": "SO3 2LY", "town": "Winchester", "phone": "01489 892281", "id": 19846, "region": "South East" }, "geometry": { "type": "Point", "coordinates": [ -1.20756, 50.93412 ] } },
{ "type": "Feature", "properties": { "lat": 50.915, "lon": -1.209134, "name": "Silverlake Garage (Motor Salvage) Ltd", "address": "Rowash<br> Botley Road<br> Shedfield<br> Southampton", "postcode": "SO32 2HL.", "town": "Southampton", "phone": "01489 782537", "id": 19851, "region": "South East" }, "geometry": { "type": "Point", "coordinates": [ -1.209134, 50.915 ] } },
{ "type": "Feature", "properties": { "lat": 51.010014, "lon": -1.263822, "name": "Advanced Vehicle Spares", "address": "Main Road<br> Colden Common<br>  Winchester", "postcode": "SO21 1RP", "town": "Winchester", "phone": "01962 714212", "id": 19857, "region": "South East" }, "geometry": { "type": "Point", "coordinates": [ -1.263822, 51.010014 ] } },
{ "type": "Feature", "properties": { "lat": 51.026197, "lon": -1.274665, "name": "Gough Partners", "address": "Morestead Farm<br> Morestead<br> Nr Winchester<br> Hampshire", "postcode": "SO21 1JD", "town": "Winchester", "phone": "01962 712036", "id": 19862, "region": "South East" }, "geometry": { "type": "Point", "coordinates": [ -1.274665, 51.026197 ] } },
{ "type": "Feature", "properties": { "lat": 50.911661, "lon": -1.38501, "name": "Sheppard (group) Ltd  (EMR)", "address": "1 Northam Ironworks<br>  Princes Street<br> Southampton<br> Hampshire", "postcode": "SO14 5RP", "town": "Southampton", "phone": "02380 336288", "id": 19896, "region": "South East" }, "geometry": { "type": "Point", "coordinates": [ -1.38501, 50.911661 ] } },
{ "type": "Feature", "properties": { "lat": 50.89316, "lon": -1.345074, "name": "Huntley Bros Ltd", "address": "Ashley Crescent<br> Sholing<br> Southampton", "postcode": "SO19 9NA", "town": "Southampton", "phone": "02380 447300", "id": 19897, "region": "South East" }, "geometry": { "type": "Point", "coordinates": [ -1.345074, 50.89316 ] } },
{ "type": "Feature", "properties": { "lat": 50.871966, "lon": -1.238974, "name": "GT Export", "address": "Whiteley Lane<br> Titchfield<br> Fareham<br> Hampshire", "postcode": "PO15 6RQ", "town": "Fareham", "phone": "O7711404816", "id": 19942, "region": "South East" }, "geometry": { "type": "Point", "coordinates": [ -1.238974, 50.871966 ] } },
{ "type": "Feature", "properties": { "lat": 50.797728, "lon": -1.137429, "name": "Car Components Gosport Ltd", "address": "Toronto Place<br> Moreland Road<br> Gosport", "postcode": "PO12 4UZ", "town": "Gosport", "phone": "02392 501511", "id": 19953, "region": "South East" }, "geometry": { "type": "Point", "coordinates": [ -1.137429, 50.797728 ] } },
{ "type": "Feature", "properties": { "lat": 50.846552, "lon": -1.067176, "name": "C D Jordan & Sons Ltd", "address": "Dundas Spur<br> Dundas Lane<br> Portsmouth<br> Hampshire", "postcode": "PO3 5NX", "town": "Portsmouth", "phone": "02392 661391", "id": 19963, "region": "South East" }, "geometry": { "type": "Point", "coordinates": [ -1.067176, 50.846552 ] } },
{ "type": "Feature", "properties": { "lat": 50.823515, "lon": -1.053414, "name": "Tilbury Metals Ltd", "address": "Old reservoir Road<br> Farlington<br> Portsmouth", "postcode": "PO6 3ER", "town": "Portsmouth", "phone": "02392 210008", "id": 19966, "region": "South East" }, "geometry": { "type": "Point", "coordinates": [ -1.053414, 50.823515 ] } },
{ "type": "Feature", "properties": { "lat": 50.976471, "lon": -1.614952, "name": "H. Lashley & E.Davey", "address": "Alchorne Place<br> Airport Industrial Estate<br> Portsmouth", "postcode": "PO3 5QL", "town": "Portsmouth", "phone": "02392 693952", "id": 19967, "region": "South East" }, "geometry": { "type": "Point", "coordinates": [ -1.614952, 50.976471 ] } },
{ "type": "Feature", "properties": { "lat": 50.393709, "lon": -4.824485, "name": "JMA Salvage Limited", "address": "Giles Lane Ind Est<br> Giles Lane<br> Landford<br> Wiltshire", "postcode": "SP5 2BG", "town": "Southampton", "phone": "01794 322600", "id": 19997, "region": "South East" }, "geometry": { "type": "Point", "coordinates": [ -4.824485, 50.393709 ] } },
{ "type": "Feature", "properties": { "lat": 50.186688, "lon": -5.39751, "name": "Combellack Motors & Vehicle Recyclers", "address": "Trendale Ind Park<br> Higher Trezaise Rd<br> St Austell<br> Cornwall", "postcode": "PL26 8HY", "town": "St Austell", "phone": "01726 891100", "id": 20024, "region": "South West" }, "geometry": { "type": "Point", "coordinates": [ -5.39751, 50.186688 ] } },
{ "type": "Feature", "properties": { "lat": 50.23762, "lon": -5.256339, "name": "Wheal Alfred Metal Recycling Ltd", "address": "Wheal Alfred Road<br> Hayle<br> Cornwall", "postcode": "TR27 5JT", "town": "Hayle", "phone": "01736 754807", "id": 20071, "region": "South West" }, "geometry": { "type": "Point", "coordinates": [ -5.256339, 50.23762 ] } },
{ "type": "Feature", "properties": { "lat": 50.343625, "lon": -4.858694, "name": "Illogan Car Spares", "address": "West Tolgus<br> Illogan<br> Redruth<br> Cornwall", "postcode": "TR15 3TP", "town": "Redruth", "phone": "01209 221838", "id": 20072, "region": "South West" }, "geometry": { "type": "Point", "coordinates": [ -4.858694, 50.343625 ] } },
{ "type": "Feature", "properties": { "lat": 50.1939, "lon": -5.277029, "name": "T Senford t\/a ARC Southwest", "address": "18-21 High Street Ind Est<br> High Street<br> St Austell<br> Cornwall", "postcode": "PL26 7ST", "town": "St Austell", "phone": "01726 821819", "id": 20073, "region": "South West" }, "geometry": { "type": "Point", "coordinates": [ -5.277029, 50.1939 ] } },
{ "type": "Feature", "properties": { "lat": 50.229355, "lon": -5.16283, "name": "Camborne Car Spares", "address": "Condurrow Road<br> Beacon<br> Camborne", "postcode": "TR14 9AL", "town": "Camborne", "phone": "01209 718911", "id": 20074, "region": "South West" }, "geometry": { "type": "Point", "coordinates": [ -5.16283, 50.229355 ] } },
{ "type": "Feature", "properties": { "lat": 50.24731, "lon": -5.247654, "name": "Broad-Agri", "address": "Unit 5<br> Phase 2<br> United Downs Ind Est<br> Redruth<br> Cornwall", "postcode": "TR16 5HY", "town": "Redruth", "phone": "01209 821841", "id": 20075, "region": "South West" }, "geometry": { "type": "Point", "coordinates": [ -5.247654, 50.24731 ] } },
{ "type": "Feature", "properties": { "lat": 50.364601, "lon": -4.1227, "name": "South West Renault Spares", "address": "Gilberts Coombe<br> New Portreath Road<br> Redruth<br> Cornwall", "postcode": "TR16 4HG", "town": "Redruth", "phone": "01209 314181", "id": 20076, "region": "South West" }, "geometry": { "type": "Point", "coordinates": [ -4.1227, 50.364601 ] } },
{ "type": "Feature", "properties": { "lat": 50.427809, "lon": -4.283877, "name": "Thistle Park Garage Ltd", "address": "4 Barbican Approach<br> Coxside<br> Plymouth", "postcode": "PL4 OLG", "town": "Plymouth", "phone": "01752 256050", "id": 20077, "region": "South West" }, "geometry": { "type": "Point", "coordinates": [ -4.283877, 50.427809 ] } },
{ "type": "Feature", "properties": { "lat": 50.388233, "lon": -4.065192, "name": "Old English Cars", "address": "Frenchmans Lane<br> Notter Bridge<br> Saltash<br> Cornwall", "postcode": "PL12 4RW", "town": "Saltash", "phone": "01752 851158", "id": 20078, "region": "South West" }, "geometry": { "type": "Point", "coordinates": [ -4.065192, 50.388233 ] } },
{ "type": "Feature", "properties": { "lat": 50.36838, "lon": -4.112719, "name": "Cleanspares (Plymouth) Ltd", "address": "64a Valley Road<br> Plymton<br> Plymouth<br> Devon", "postcode": "PL7 1RF", "town": "Plymouth", "phone": "01752 661580", "id": 20079, "region": "South West" }, "geometry": { "type": "Point", "coordinates": [ -4.112719, 50.36838 ] } },
{ "type": "Feature", "properties": { "lat": 50.549935, "lon": -4.144739, "name": "European Metal Recycling Ltd", "address": "Faraday Road<br> Plymouth<br> Devon", "postcode": "PL4 0ST", "town": "Plymouth", "phone": "01752 601121", "id": 20080, "region": "South West" }, "geometry": { "type": "Point", "coordinates": [ -4.144739, 50.549935 ] } },
{ "type": "Feature", "properties": { "lat": 50.509865, "lon": -4.302915, "name": "J Sanders & Son", "address": "Newlands Cottage<br> Heathfield<br> Tavistock<br> Devon", "postcode": "PL19 0LE", "town": "Tavistock", "phone": "01822 810393", "id": 20081, "region": "South West" }, "geometry": { "type": "Point", "coordinates": [ -4.302915, 50.509865 ] } },
{ "type": "Feature", "properties": { "lat": 50.662905, "lon": -4.744564, "name": "T.C.B (Performance Parts) Ltd", "address": "Florence Road Ind Est<br> Florence Road<br> Kelly Bray<br> Callington<br> Cornwall", "postcode": "PL17 8EG", "town": "Callington", "phone": "01579 383879", "id": 20082, "region": "South West" }, "geometry": { "type": "Point", "coordinates": [ -4.744564, 50.662905 ] } },
{ "type": "Feature", "properties": { "lat": 50.393061, "lon": -4.11344, "name": "K Hoskin t\/a B & H Haulage Scrap Metal Removers", "address": "Bowithick Quarry<br> Sandling Road<br> Tintagel", "postcode": "PL34 0HH", "town": "Tintagel", "phone": "01840 212126", "id": 20083, "region": "South West" }, "geometry": { "type": "Point", "coordinates": [ -4.11344, 50.393061 ] } },
{ "type": "Feature", "properties": { "lat": 50.367771, "lon": -4.1277, "name": "Beacon Car & Commercial", "address": "Leaves Yard<br> Windsor Road<br> Higher Compton<br> Plymouth", "postcode": "PL3 6QN", "town": "Plymouth", "phone": "01752 777615", "id": 20084, "region": "South West" }, "geometry": { "type": "Point", "coordinates": [ -4.1277, 50.367771 ] } },
{ "type": "Feature", "properties": { "lat": 50.337744, "lon": -4.877995, "name": "S W M & Waste Recycling Ltd", "address": "Unit B\/H Wallsend Ind Est<br> Cattedown Wharves<br> Plymouth", "postcode": "PL4 0RW", "town": "Plymouth", "phone": "01752 220809", "id": 20085, "region": "South West" }, "geometry": { "type": "Point", "coordinates": [ -4.877995, 50.337744 ] } },
{ "type": "Feature", "properties": { "lat": 50.65666, "lon": -4.432978, "name": "Duchy Motor Spares", "address": "Top Yard<br> Gwindra Ind Est<br> St Stephen<br> St Austell<br> Cornwall", "postcode": "PL26 7LE", "town": "St Austell", "phone": "01726 67319", "id": 20088, "region": "South West" }, "geometry": { "type": "Point", "coordinates": [ -4.432978, 50.65666 ] } },
{ "type": "Feature", "properties": { "lat": 50.373169, "lon": -4.176939, "name": "Launceston Car Breakers", "address": "Sunnyside<br> Underlane<br> Launceston", "postcode": "PL15 8SN", "town": "Launceston", "phone": "01566 776675", "id": 20089, "region": "South West" }, "geometry": { "type": "Point", "coordinates": [ -4.176939, 50.373169 ] } },
{ "type": "Feature", "properties": { "lat": 50.3183, "lon": -4.929884, "name": "Richmond Auto Spares", "address": "Richmond Walk<br> Devonport<br> Plymouth", "postcode": "PL14 4LL", "town": "Plymouth", "phone": "01752 607540", "id": 20090, "region": "South West" }, "geometry": { "type": "Point", "coordinates": [ -4.929884, 50.3183 ] } },
{ "type": "Feature", "properties": { "lat": 50.366905, "lon": -4.972069, "name": "Seaview Recovery", "address": "Carnemough<br> Grampound Road<br> Truro<br> Cornwall", "postcode": "TR2 4EL", "town": "Truro", "phone": "01726 884 524", "id": 20096, "region": "South West" }, "geometry": { "type": "Point", "coordinates": [ -4.972069, 50.366905 ] } },
{ "type": "Feature", "properties": { "lat": 50.370183, "lon": -4.113131, "name": "Summercourt Scrap Yard Ltd", "address": "Fernacre<br> Trefullock<br> Summercourt<br> Newquay<br> Cornwall", "postcode": "TR8 5BY", "town": "Newquay", "phone": "01726 861171", "id": 20101, "region": "South West" }, "geometry": { "type": "Point", "coordinates": [ -4.113131, 50.370183 ] } },
{ "type": "Feature", "properties": { "lat": 50.172075, "lon": -5.096705, "name": "Plymouth Vauxhall Spares", "address": "6 Cattewater Road<br> Cattedown<br> Plymouth", "postcode": "PL4 0SE", "town": "Plymouth", "phone": "01752 223223", "id": 20104, "region": "South West" }, "geometry": { "type": "Point", "coordinates": [ -5.096705, 50.172075 ] } },
{ "type": "Feature", "properties": { "lat": 50.520366, "lon": -4.316074, "name": "Jimmy May Scrap Metal Ltd", "address": "The Scrap Yard<br> Busvannah<br> Penryn<br> Cornwall", "postcode": "TR10 9LQ", "town": "Penryn", "phone": "01326 373345", "id": 20650, "region": "South West" }, "geometry": { "type": "Point", "coordinates": [ -4.316074, 50.520366 ] } },
{ "type": "Feature", "properties": { "lat": 50.458278, "lon": -4.703316, "name": "Rundles Car Dismantlers", "address": "Saigon<br> Redmoor Road<br> Kelly Bray<br> Callington<br> Cornwall", "postcode": "PL17 8EN", "town": "Callington", "phone": "01579 384963", "id": 20651, "region": "South West" }, "geometry": { "type": "Point", "coordinates": [ -4.703316, 50.458278 ] } },
{ "type": "Feature", "properties": { "lat": 50.373699, "lon": -4.7392, "name": "Sims Group UK Limited", "address": "8 Lucknow Road<br> Walker Lines Ind Est<br> Bodmin<br> Cornwall", "postcode": "PL31 1EZ", "town": "Bodmin", "phone": "01208 72188", "id": 20652, "region": "South West" }, "geometry": { "type": "Point", "coordinates": [ -4.7392, 50.373699 ] } },
{ "type": "Feature", "properties": { "lat": 50.457495, "lon": -4.520474, "name": "Orchard Henry & Sons", "address": "Methrose Works<br> Carne Cross<br> St Austell<br> Cornwall", "postcode": "PL24 2SX", "town": "St Austell", "phone": "01726 850507", "id": 20653, "region": "South West" }, "geometry": { "type": "Point", "coordinates": [ -4.520474, 50.457495 ] } },
{ "type": "Feature", "properties": { "lat": 50.65666, "lon": -4.432978, "name": "W H Orchard & Sons", "address": "Burnt House Garage<br> Dobwalls<br> Liskeard<br> Cornwall", "postcode": "PL14 6HE", "town": "Liskeard", "phone": "01579 320223", "id": 20654, "region": "South West" }, "geometry": { "type": "Point", "coordinates": [ -4.432978, 50.65666 ] } },
{ "type": "Feature", "properties": { "lat": 50.52391, "lon": -4.213629, "name": "Kirton Recycling Ltd", "address": "Southern Garage<br> Newport Ind Est<br> Launceston", "postcode": "PL15 8EX", "town": "Launceston", "phone": "01566 775600", "id": 20656, "region": "South West" }, "geometry": { "type": "Point", "coordinates": [ -4.213629, 50.52391 ] } },
{ "type": "Feature", "properties": { "lat": 50.232034, "lon": -5.174639, "name": "Flashmans Metal Recycling", "address": "Greenhill<br> Delaware Road<br> Gunnislake<br> Cornwall", "postcode": "PL18 9AS", "town": "Gunnislake", "phone": "01822 832789", "id": 20658, "region": "South West" }, "geometry": { "type": "Point", "coordinates": [ -5.174639, 50.232034 ] } },
{ "type": "Feature", "properties": { "lat": 50.25627, "lon": -5.160129, "name": "Chosen View Metal Recycling", "address": "United Road<br> St Day<br> Redruth", "postcode": "TR16 5HT", "town": "Redruth", "phone": "01209 820313", "id": 20659, "region": "South West" }, "geometry": { "type": "Point", "coordinates": [ -5.160129, 50.25627 ] } },
{ "type": "Feature", "properties": { "lat": 50.213654, "lon": -5.301258, "name": "M Drew Ltd", "address": "United Road<br> St Day<br> Redruth", "postcode": "TR16 5HT", "town": "Redruth", "phone": "01209 822260", "id": 20660, "region": "South West" }, "geometry": { "type": "Point", "coordinates": [ -5.301258, 50.213654 ] } },
{ "type": "Feature", "properties": { "lat": 50.231495, "lon": -5.16489, "name": "Duckworth Car Spares", "address": "Wheal Busy<br> Chacewater<br> Truro", "postcode": "TR4 8NZ", "town": "Truro", "phone": "01872 560465", "id": 20671, "region": "South West" }, "geometry": { "type": "Point", "coordinates": [ -5.16489, 50.231495 ] } },
{ "type": "Feature", "properties": { "lat": 50.365185, "lon": -4.123674, "name": "Sims Group UK Limited", "address": "Beta Works<br> Foundry Road<br> Camborne<br> Cornwall", "postcode": "TR14 7BX", "town": "Camborne", "phone": "01209 712333", "id": 20673, "region": "South West" }, "geometry": { "type": "Point", "coordinates": [ -4.123674, 50.365185 ] } },
{ "type": "Feature", "properties": { "lat": 50.410725, "lon": -4.021675, "name": "Wares", "address": "Heatherbank<br> United Road<br> St Day<br> Redruth<br> Cornwall", "postcode": "TR16 5HT", "town": "Redruth", "phone": "01209 820320", "id": 20676, "region": "South West" }, "geometry": { "type": "Point", "coordinates": [ -4.021675, 50.410725 ] } },
{ "type": "Feature", "properties": { "lat": 50.36753, "lon": -4.127474, "name": "K Robins", "address": "Breakwater Hill<br> Coxside<br> Plymouth", "postcode": "PL4 0NA", "town": "Plymouth", "phone": "01752 266482", "id": 20901, "region": "South West" }, "geometry": { "type": "Point", "coordinates": [ -4.127474, 50.36753 ] } },
{ "type": "Feature", "properties": { "lat": 50.784621, "lon": -3.647989, "name": "M Reed t\/a Newnham Car Spares", "address": "Bottle Hill Quarry<br> Newnham<br> Plympton<br> Plymouth<br> Devon", "postcode": "PL7 5BP", "town": "Plymouth", "phone": "01752 345326", "id": 20903, "region": "South West" }, "geometry": { "type": "Point", "coordinates": [ -3.647989, 50.784621 ] } },
{ "type": "Feature", "properties": { "lat": 50.423439, "lon": -3.833249, "name": "Sims Group UK Limited", "address": "Sutton Road<br> Plymouth Devon", "postcode": "PL4 0HN", "town": "Plymouth", "phone": "01752 661576", "id": 20916, "region": "South West" }, "geometry": { "type": "Point", "coordinates": [ -3.833249, 50.423439 ] } },
{ "type": "Feature", "properties": { "lat": 50.484067, "lon": -3.681458, "name": "Kirton Recycling Ltd", "address": "Four Mills Lane<br> Crediton<br> Devon", "postcode": "EX17 3BT", "town": "Crediton", "phone": "01363 773713", "id": 21506, "region": "South West" }, "geometry": { "type": "Point", "coordinates": [ -3.681458, 50.484067 ] } },
{ "type": "Feature", "properties": { "lat": 50.52267, "lon": -3.575709, "name": "South Brent Car Breakers", "address": "Greylands<br> South Brent<br> Devon", "postcode": "TQ10 9JU", "town": "South Brent", "phone": "01364 72722", "id": 21511, "region": "South West" }, "geometry": { "type": "Point", "coordinates": [ -3.575709, 50.52267 ] } },
{ "type": "Feature", "properties": { "lat": 50.546573, "lon": -3.588194, "name": "Ron Greet", "address": "Bickaton<br> Broadhempston<br> Totnes", "postcode": "TQ9 6BY", "town": "Totnes", "phone": "01803 813039", "id": 21527, "region": "South West" }, "geometry": { "type": "Point", "coordinates": [ -3.588194, 50.546573 ] } },
{ "type": "Feature", "properties": { "lat": 50.420366, "lon": -3.599913, "name": "Milber Salvage + Spares", "address": "20-22 Milber Trading Estate<br> Newton Abbot<br> Devon", "postcode": "TQ12 4SG", "town": "Newton Abbott", "phone": "01626 364516", "id": 21529, "region": "South West" }, "geometry": { "type": "Point", "coordinates": [ -3.599913, 50.420366 ] } },
{ "type": "Feature", "properties": { "lat": 51.053865, "lon": -3.803659, "name": "Alan Neild Commericals", "address": "The Clay Cellars<br> Teignbridge Level Crossing<br> Kingsteignton<br> Newton Abbott", "postcode": "TQ12 3QJ", "town": "Newton Abbott", "phone": "01626 367588", "id": 21532, "region": "South West" }, "geometry": { "type": "Point", "coordinates": [ -3.803659, 51.053865 ] } },
{ "type": "Feature", "properties": { "lat": 50.952838, "lon": -4.087549, "name": "Gormans metals Ltd T\/A Quarry Breakers", "address": "Yalberton Road<br> Paignton<br> Devon", "postcode": "TQ4 7JP", "town": "Paignton", "phone": "01803 555953", "id": 21536, "region": "South West" }, "geometry": { "type": "Point", "coordinates": [ -4.087549, 50.952838 ] } },
{ "type": "Feature", "properties": { "lat": 51.00778, "lon": -4.23484, "name": "Penfold t\/a South Molton Metals", "address": "Quicks Close<br> Hacche Lane<br> South Molton<br> Devon", "postcode": "EX36 3EH", "town": "South Molton", "phone": "01769 572184", "id": 21548, "region": "South West" }, "geometry": { "type": "Point", "coordinates": [ -4.23484, 51.00778 ] } },
{ "type": "Feature", "properties": { "lat": 50.824294, "lon": -3.152481, "name": "A C Poulton", "address": "Deepmoor<br> St Giles in the Wood<br> Torrington<br> Devon", "postcode": "EX38 7LD", "town": "Torrington", "phone": "01805 622680", "id": 21549, "region": "South West" }, "geometry": { "type": "Point", "coordinates": [ -3.152481, 50.824294 ] } },
{ "type": "Feature", "properties": { "lat": 50.775021, "lon": -3.5029, "name": "Oxy Ltd (South West Metals Ltd)", "address": "Adjavin Lane<br> Clovelly Road<br> Bideford<br> North Devon", "postcode": "EX39 3QU", "town": "Bideford", "phone": "01237 472270", "id": 21550, "region": "South West" }, "geometry": { "type": "Point", "coordinates": [ -3.5029, 50.775021 ] } },
{ "type": "Feature", "properties": { "lat": 50.88868, "lon": -3.370854, "name": "G H Newberry & Son (Honiton) Ltd", "address": "Corbins Scrap Yard<br> Wylam House<br> Monkton<br> Devon", "postcode": "EX14 9QQ", "town": "Monkton", "phone": "01404 46020", "id": 21552, "region": "South West" }, "geometry": { "type": "Point", "coordinates": [ -3.370854, 50.88868 ] } },
{ "type": "Feature", "properties": { "lat": 50.785968, "lon": -3.648583, "name": "R S M Beares ( Stoke Canon) Ltd.", "address": "Stoke Canon<br> Exeter<br> Devon", "postcode": "EX5 4AX", "town": "Exeter", "phone": "01392 841322", "id": 21553, "region": "South West" }, "geometry": { "type": "Point", "coordinates": [ -3.648583, 50.785968 ] } },
{ "type": "Feature", "properties": { "lat": 50.624453, "lon": -3.389365, "name": "G Litten & D Litten t\/a T Junction Auto Spares", "address": "Station Yard<br> Willand<br> Devon", "postcode": "EX15 2PR", "town": "Willand", "phone": "01884 821187", "id": 21555, "region": "South West" }, "geometry": { "type": "Point", "coordinates": [ -3.389365, 50.624453 ] } },
{ "type": "Feature", "properties": { "lat": 50.865487, "lon": -3.328136, "name": "Woods Group", "address": "32-35 Exeter Road<br> Crediton<br> Devon", "postcode": "EX17 3BP", "town": "Crediton", "phone": "01363 776160", "id": 21558, "region": "South West" }, "geometry": { "type": "Point", "coordinates": [ -3.328136, 50.865487 ] } },
{ "type": "Feature", "properties": { "lat": 50.790369, "lon": -3.143849, "name": "East Devon Car Breakers Ltd", "address": "Littleham Ind Est<br> Dankhurst Close<br> Exmouth", "postcode": "EX8 2TB", "town": "Exmouth", "phone": "01395 277570", "id": 21559, "region": "South West" }, "geometry": { "type": "Point", "coordinates": [ -3.143849, 50.790369 ] } },
{ "type": "Feature", "properties": { "lat": 50.673224, "lon": -3.402355, "name": "T M Whitfield", "address": "St Andrews Farm<br> Kentisbeare<br> Cullompton<br> Devon", "postcode": "EX15 2BZ", "town": "Cullompton", "phone": "01884 266283", "id": 21560, "region": "South West" }, "geometry": { "type": "Point", "coordinates": [ -3.402355, 50.673224 ] } },
{ "type": "Feature", "properties": { "lat": 50.699797, "lon": -3.521951, "name": "N P & B P Penfold", "address": "Blacklands Bungalow<br> Offwell<br> Honiton", "postcode": "EX14 9RU", "town": "Honiton", "phone": "01404 831665", "id": 21561, "region": "South West" }, "geometry": { "type": "Point", "coordinates": [ -3.521951, 50.699797 ] } },
{ "type": "Feature", "properties": { "lat": 50.707576, "lon": -3.532639, "name": "Woodbury Car Breakers", "address": "Ham Lane<br> Gilbrook<br> Woodbury<br> Devon", "postcode": "EX5 1LG", "town": "Woodbury", "phone": "01395 232959", "id": 21562, "region": "South West" }, "geometry": { "type": "Point", "coordinates": [ -3.532639, 50.707576 ] } },
{ "type": "Feature", "properties": { "lat": 51.132851, "lon": -4.154545, "name": "Allparts South West Ltd", "address": "22 Hennock Road East<br> Marsh Barton Ind Est<br> Exeter", "postcode": "EX2 8RU", "town": "Exeter", "phone": "01392 420460", "id": 21563, "region": "South West" }, "geometry": { "type": "Point", "coordinates": [ -4.154545, 51.132851 ] } },
{ "type": "Feature", "properties": { "lat": 50.52889, "lon": -3.607949, "name": "Sims Group UK Limited", "address": "7 Christow Road<br> Marsh Barton Ind Est<br> Exeter<br> Devon", "postcode": "EX2 8QT", "town": "Exeter", "phone": "01392 276292", "id": 21693, "region": "South West" }, "geometry": { "type": "Point", "coordinates": [ -3.607949, 50.52889 ] } },
{ "type": "Feature", "properties": { "lat": 50.709497, "lon": -3.528322, "name": "Oxy Ltd t\/a Stoneybridge Vehicle Dismantlers", "address": "Stoneybridge<br> Knowle<br> Braunton<br> Devon", "postcode": "EX33 1HR", "town": "Braunton", "phone": null, "id": 21697, "region": "South West" }, "geometry": { "type": "Point", "coordinates": [ -3.528322, 50.709497 ] } },
{ "type": "Feature", "properties": { "lat": 50.80939, "lon": -2.739546, "name": "Gormans Metals Ltd", "address": "Harlington Works<br> Kingsteignton Road<br> Newton Abbot<br> Devon", "postcode": "TQ12 2QA", "town": "Newton Abbot", "phone": "01626 365863", "id": 21766, "region": "South West" }, "geometry": { "type": "Point", "coordinates": [ -2.739546, 50.80939 ] } },
{ "type": "Feature", "properties": { "lat": 50.561994, "lon": -3.59694, "name": "G H Newberry & Son Ltd", "address": "4 Ashton Road<br> Marsh Barton<br> Exeter<br> Devon -", "postcode": "EX2  8LN", "town": "Exeter", "phone": "01392 275377", "id": 21767, "region": "South West" }, "geometry": { "type": "Point", "coordinates": [ -3.59694, 50.561994 ] } },
{ "type": "Feature", "properties": { "lat": 50.90536, "lon": -3.472199, "name": "G P Butler", "address": "Potwell Gorse<br> Mosterton<br> Beaminster<br> Dorset", "postcode": "DT8 3HG", "town": "Beaminster", "phone": "01308 867123", "id": 21770, "region": "South West" }, "geometry": { "type": "Point", "coordinates": [ -3.472199, 50.90536 ] } },
{ "type": "Feature", "properties": { "lat": 50.72362, "lon": -3.738499, "name": "Olympus Car Recovery", "address": "Teignbridge Level Crossing<br> Higher Sandygate<br> Newton Abbot<br> Devon", "postcode": "TQ12 3QJ", "town": "Newton Abbot", "phone": "01626 835832", "id": 21771, "region": "South West" }, "geometry": { "type": "Point", "coordinates": [ -3.738499, 50.72362 ] } },
{ "type": "Feature", "properties": { "lat": 51.015325, "lon": -3.835584, "name": "E B Janes Ltd", "address": "58 Blundells Road<br> Tiverton<br> Devon", "postcode": "EX16 4DE", "town": "Tiverton", "phone": "01884 252095", "id": 21772, "region": "South West" }, "geometry": { "type": "Point", "coordinates": [ -3.835584, 51.015325 ] } },
{ "type": "Feature", "properties": { "lat": 50.730844, "lon": -3.605955, "name": "Brookside Commercials", "address": "Brookside Garage<br> Springfield Farm<br> Cheriton Bishop<br> Devon", "postcode": "EX6 6JN", "town": "Cheriton Bishop", "phone": "01392 811255", "id": 21773, "region": "South West" }, "geometry": { "type": "Point", "coordinates": [ -3.605955, 50.730844 ] } },
{ "type": "Feature", "properties": { "lat": 50.425664, "lon": -3.593274, "name": "James Sherlock Bmw Motorcycles", "address": "3 Cooks Cross Industrial Estate<br> South Molton<br> Devon", "postcode": "EX36 4EJ", "town": "South Molton", "phone": "01769 574350", "id": 21774, "region": "South West" }, "geometry": { "type": "Point", "coordinates": [ -3.593274, 50.425664 ] } },
{ "type": "Feature", "properties": { "lat": 50.981145, "lon": -2.367849, "name": "G Trickett and M Dodd T\/A White Horse Car Breakers", "address": "Tedburn Road<br> Whitestone<br> Exeter<br> Devon", "postcode": "EX4 2HF", "town": "Exeter", "phone": "01392 811380", "id": 21775, "region": "South West" }, "geometry": { "type": "Point", "coordinates": [ -2.367849, 50.981145 ] } },
{ "type": "Feature", "properties": { "lat": 50.98071, "lon": -2.369334, "name": "Whitestar Management Ltd", "address": "Unit 2 Blackthorn Way<br> Paignton<br> Devon", "postcode": "TQ4 7QY", "town": "Paignton", "phone": "01803 526321", "id": 21788, "region": "South West" }, "geometry": { "type": "Point", "coordinates": [ -2.369334, 50.98071 ] } },
{ "type": "Feature", "properties": { "lat": 51.0417, "lon": -2.155759, "name": "WS Metals", "address": "Marsh Lane<br> Henstridge Marsh Trading Estate<br> Henstridge<br> Somerset", "postcode": "BA8 0TG", "town": "Henstridge", "phone": "01963 364700", "id": 23537, "region": "South West" }, "geometry": { "type": "Point", "coordinates": [ -2.155759, 51.0417 ] } },
{ "type": "Feature", "properties": { "lat": 50.7422, "lon": -1.976949, "name": "Symonds Salvage", "address": "Marsh Lane Trading Estate<br> Marsh Lane<br> Henstridge<br> Somerset", "postcode": "BA8 0TG", "town": "Henstridge", "phone": "07860 287621", "id": 23538, "region": "South West" }, "geometry": { "type": "Point", "coordinates": [ -1.976949, 50.7422 ] } },
{ "type": "Feature", "properties": { "lat": 50.82119, "lon": -2.572, "name": "Langfords Vehicle Dismantlers", "address": "The Breakers Yard<br> Semley<br> Shaftesbury", "postcode": "SP7 9AQ", "town": "Shaftesbury", "phone": "01747 852442", "id": 23542, "region": "South West" }, "geometry": { "type": "Point", "coordinates": [ -2.572, 50.82119 ] } },
{ "type": "Feature", "properties": { "lat": 50.85182, "lon": -2.48373, "name": "Bournemouth Autos", "address": "1-4 Kennington Road<br> Nuffield Ind Est<br> Poole<br> Dorset", "postcode": "BH17 0GF", "town": "Poole", "phone": "01202 675564", "id": 23562, "region": "South West" }, "geometry": { "type": "Point", "coordinates": [ -2.48373, 50.85182 ] } },
{ "type": "Feature", "properties": { "lat": 50.6603, "lon": -2.546669, "name": "Plastik Solutions Ltd", "address": "Wardon Hill<br> Frome St Quinton<br> Dorchester<br> Dorset", "postcode": "DT2 9PW", "town": "Dorchester", "phone": "01305 852064", "id": 23563, "region": "South West" }, "geometry": { "type": "Point", "coordinates": [ -2.546669, 50.6603 ] } },
{ "type": "Feature", "properties": { "lat": 50.717888, "lon": -2.44588, "name": "C J Tite", "address": "Car Dismantlers Yard<br> Lyons Gate<br> Dorchester<br> Dorset", "postcode": "DT2 7AZ", "town": "Dorchester", "phone": "01300 345219", "id": 23565, "region": "South West" }, "geometry": { "type": "Point", "coordinates": [ -2.44588, 50.717888 ] } },
{ "type": "Feature", "properties": { "lat": 50.74364, "lon": -1.947124, "name": "GP Metals and Spares Ltd", "address": "Bramdon Lane Scrapyard<br> Bramdon Lane<br> Portesham<br> Weymouth<br> Dorset", "postcode": "DT3 4HG", "town": "Weymouth", "phone": "01305 871666", "id": 23572, "region": "South West" }, "geometry": { "type": "Point", "coordinates": [ -1.947124, 50.74364 ] } },
{ "type": "Feature", "properties": { "lat": 50.738735, "lon": -1.916085, "name": "Dorchester Car Spares", "address": "Unit 9b Grove Road<br> Grove Trading Estate<br> Dorchester<br> Dorset", "postcode": "DT1 1ST", "town": "Dorchester", "phone": "01305 266302", "id": 23583, "region": "South West" }, "geometry": { "type": "Point", "coordinates": [ -1.916085, 50.738735 ] } },
{ "type": "Feature", "properties": { "lat": 50.808212, "lon": -1.918821, "name": "Charles Trent Ltd", "address": "8 St Georges Avenue<br> Poole<br> Dorset", "postcode": "BH12 4ND", "town": "Poole", "phone": "01202 747326", "id": 23592, "region": "South West" }, "geometry": { "type": "Point", "coordinates": [ -1.918821, 50.808212 ] } },
{ "type": "Feature", "properties": { "lat": 50.777045, "lon": -2.015154, "name": "Nelson Stanley Limited", "address": "217 Alder Road<br> Parkstone<br> Poole<br> Dorset", "postcode": "BH12 4AP", "town": "Poole", "phone": "01202 241020", "id": 23593, "region": "South West" }, "geometry": { "type": "Point", "coordinates": [ -2.015154, 50.777045 ] } },
{ "type": "Feature", "properties": { "lat": 51.079765, "lon": -1.923885, "name": "G Sait Ltd", "address": "9 Cobham Road<br> Ferndown Ind Est<br> Wimborne<br> Dorset", "postcode": "BH21 7PE", "town": "Wimborne", "phone": "01202 875612", "id": 23597, "region": "South West" }, "geometry": { "type": "Point", "coordinates": [ -1.923885, 51.079765 ] } },
{ "type": "Feature", "properties": { "lat": 50.74382, "lon": -1.950609, "name": "Sims Group UK Limited", "address": "Candys Lane<br> Corfe Mullen<br> Wimborne<br> Dorset", "postcode": "BH21 3EF", "town": "Wimborne", "phone": "01202 885019", "id": 23678, "region": "South West" }, "geometry": { "type": "Point", "coordinates": [ -1.950609, 50.74382 ] } },
{ "type": "Feature", "properties": { "lat": 51.20991, "lon": -2.178949, "name": "Hillyards", "address": "Rebel Haven<br> Duck Lane<br> Barford St.Martin<br> Salisbury<br> Wilts", "postcode": "SP3 4AN", "town": "Salisbury", "phone": "01722 742342", "id": 23721, "region": "South West" }, "geometry": { "type": "Point", "coordinates": [ -2.178949, 51.20991 ] } },
{ "type": "Feature", "properties": { "lat": 50.790165, "lon": -1.86656, "name": "Roadside Rescue", "address": "28 Fancy Road<br> Parkstone<br> Poole<br> Dorset", "postcode": "BH12 4QZ", "town": "Poole", "phone": "01202 722666", "id": 23722, "region": "South West" }, "geometry": { "type": "Point", "coordinates": [ -1.86656, 50.790165 ] } },
{ "type": "Feature", "properties": { "lat": 51.135535, "lon": -1.946434, "name": "E J Shanley and Son (Trowbridge) Ltd", "address": "43 Copheap Lane<br> Warminster<br> Wiltshire", "postcode": "BA12 0QB", "town": "Warminster", "phone": "01225 753333", "id": 23723, "region": "South West" }, "geometry": { "type": "Point", "coordinates": [ -1.946434, 51.135535 ] } },
{ "type": "Feature", "properties": { "lat": 50.7435, "lon": -1.945665, "name": "John Turner Commercials", "address": "The Retreat<br> Barrack Road<br> West Parley<br> Bournemouth", "postcode": "BH22 8UB", "town": "Bournemouth", "phone": "01202 571462", "id": 23724, "region": "South West" }, "geometry": { "type": "Point", "coordinates": [ -1.945665, 50.7435 ] } },
{ "type": "Feature", "properties": { "lat": 50.71157, "lon": -2.424042, "name": "Dinton Car Breakers", "address": "The Belt<br> Dinton<br> Salisbury <br>Wiltshire", "postcode": "SP3 4AP", "town": "Salisbury", "phone": "01722 716333", "id": 23725, "region": "South West" }, "geometry": { "type": "Point", "coordinates": [ -2.424042, 50.71157 ] } },
{ "type": "Feature", "properties": { "lat": 50.976748, "lon": -2.393931, "name": "Charles Trent Ltd", "address": "r\/o 10 St. Georages Avenue<br> Poole<br> Dorset", "postcode": "BH12 4ND", "town": "Poole", "phone": "01202 744194", "id": 23726, "region": "South West" }, "geometry": { "type": "Point", "coordinates": [ -2.393931, 50.976748 ] } },
{ "type": "Feature", "properties": { "lat": 51.061258, "lon": -1.77758, "name": "Abbey Metals", "address": "Louds Mill<br> St Georges Road<br> Dorchester<br> Dorset", "postcode": "DT1 1PE", "town": "Dorchester", "phone": "01305 262544", "id": 23727, "region": "South West" }, "geometry": { "type": "Point", "coordinates": [ -1.77758, 51.061258 ] } },
{ "type": "Feature", "properties": { "lat": 51.340285, "lon": -1.762319, "name": "Kedgeworth 2000", "address": "Henstridge Airfield<br> Henstridge<br> Somerset", "postcode": "BA8 0TG", "town": "Henstridge", "phone": "01963 363653", "id": 23728, "region": "South West" }, "geometry": { "type": "Point", "coordinates": [ -1.762319, 51.340285 ] } },
{ "type": "Feature", "properties": { "lat": 50.792875, "lon": -2.833879, "name": "Riverside Car Spares", "address": "Southampton Road<br> Salisbury<br> Wiltshire", "postcode": "SP1 2LB", "town": "Salisbury", "phone": "01722 329440", "id": 23730, "region": "South West" }, "geometry": { "type": "Point", "coordinates": [ -2.833879, 50.792875 ] } },
{ "type": "Feature", "properties": { "lat": 50.819089, "lon": -1.81704, "name": "S Williams", "address": "Louisville<br> Milton Road<br> Milton Lillibourne<br> Pewsey<br> Wiltshire", "postcode": "SN9 5JJ", "town": "Pewsey", "phone": "01672 562234", "id": 23731, "region": "South West" }, "geometry": { "type": "Point", "coordinates": [ -1.81704, 50.819089 ] } },
{ "type": "Feature", "properties": { "lat": 51.33559, "lon": -2.94963, "name": "Pilsdon Autos", "address": "Maybeys Farm<br> Pilsdon<br> Bridport<br> Dorset", "postcode": "DT6 5NY", "town": "Bridport", "phone": "01308 867999", "id": 23733, "region": "South West" }, "geometry": { "type": "Point", "coordinates": [ -2.94963, 51.33559 ] } },
{ "type": "Feature", "properties": { "lat": 51.257475, "lon": -2.185129, "name": "Avon Forest Autos", "address": "120 Boundary Lane<br> St.Leonards<br> Ringwood<br> Hants", "postcode": "BH24 2SF", "town": "Ringwood", "phone": "01202 874858", "id": 23734, "region": "South West" }, "geometry": { "type": "Point", "coordinates": [ -2.185129, 51.257475 ] } },
{ "type": "Feature", "properties": { "lat": 50.988245, "lon": -3.217609, "name": "MJ & CW Harris T\/A Harris Bros Carbreakers", "address": "Old Junction Lane<br> Winterstoke Road<br> Weston-Super-Mare<br> Nr Somerset", "postcode": "BS23 3YS", "town": "Weston-S-Mare", "phone": "01934 814589", "id": 26012, "region": "South West" }, "geometry": { "type": "Point", "coordinates": [ -3.217609, 50.988245 ] } },
{ "type": "Feature", "properties": { "lat": 51.49902, "lon": -2.665209, "name": "Userve Ltd t\/a Copart UK", "address": "West Wilts Trading Estate<br> Quatermaster Road<br> Westbury<br> Wiltshire", "postcode": "BA13 4JA", "town": "Westbury", "phone": null, "id": 26023, "region": "South West" }, "geometry": { "type": "Point", "coordinates": [ -2.665209, 51.49902 ] } },
{ "type": "Feature", "properties": { "lat": 51.298215, "lon": -2.533504, "name": "A J Garrett", "address": "The Old Brickworks<br> Poole Ind Est<br> Poole<br> Wellington<br> Somerset", "postcode": "TA21 9HN", "town": "Wellington", "phone": "01823 667653", "id": 26036, "region": "South West" }, "geometry": { "type": "Point", "coordinates": [ -2.533504, 51.298215 ] } },
{ "type": "Feature", "properties": { "lat": 51.315705, "lon": -2.207734, "name": "D Hales Ltd", "address": "Ableton Lane<br> off Severn Road<br> Avonmouth<br> Bristol", "postcode": "BS11 0YL", "town": "Bristol", "phone": "0117 982 1697", "id": 26079, "region": "South West" }, "geometry": { "type": "Point", "coordinates": [ -2.207734, 51.315705 ] } },
{ "type": "Feature", "properties": { "lat": 51.51381, "lon": -2.620779, "name": "R J King & Son", "address": "Belle View<br> Pitway Lane<br> Farrington Gurney", "postcode": "BS39 6TX", "town": "Farrington Gurney", "phone": "01761 452209", "id": 26090, "region": "South West" }, "geometry": { "type": "Point", "coordinates": [ -2.620779, 51.51381 ] } },
{ "type": "Feature", "properties": { "lat": 51.452018, "lon": -2.574722, "name": "Morgana Management", "address": "Church Farm<br> Hilperton<br> Trowbridge<br> Wiltshire", "postcode": "BA14 7RG", "town": "Trowbridge", "phone": null, "id": 26095, "region": "South West" }, "geometry": { "type": "Point", "coordinates": [ -2.574722, 51.452018 ] } },
{ "type": "Feature", "properties": { "lat": 51.50262, "lon": -2.678914, "name": "M Fallows t\/a Volksmania", "address": "Unit J1<br> Severn Road<br> Hallen<br> Bristol", "postcode": "BS10 7SE", "town": "Bristol", "phone": "01179 820681", "id": 26096, "region": "South West" }, "geometry": { "type": "Point", "coordinates": [ -2.678914, 51.50262 ] } },
{ "type": "Feature", "properties": { "lat": 51.45373, "lon": -2.591564, "name": "AVR (Bristol) Ltd", "address": "74-78 Avon Street<br> St Phillips<br> Bristol", "postcode": "BS2 0SH", "town": "Bristol", "phone": "07968 928872", "id": 26098, "region": "South West" }, "geometry": { "type": "Point", "coordinates": [ -2.591564, 51.45373 ] } },
{ "type": "Feature", "properties": { "lat": 51.528181, "lon": -2.058599, "name": "A & M Motors Ltd", "address": "Fourth Way<br> Avonmouth<br> Bristol", "postcode": "BS11 8DP", "town": "Bristol", "phone": "01179 825900", "id": 26099, "region": "South West" }, "geometry": { "type": "Point", "coordinates": [ -2.058599, 51.528181 ] } },
{ "type": "Feature", "properties": { "lat": 51.42877, "lon": -2.541319, "name": "S Hoy t\/a Ecovans", "address": "Unit 17 Barker Park Estate<br> Carter Road<br> Bristol", "postcode": "BS13 7TT", "town": "Bristol", "phone": "01179 781919", "id": 26100, "region": "South West" }, "geometry": { "type": "Point", "coordinates": [ -2.541319, 51.42877 ] } },
{ "type": "Feature", "properties": { "lat": 51.205092, "lon": -3.469836, "name": "R Twitchell T\/A A1 Vauxhalls", "address": "Unit 1 Broadfield Farm<br> Great Somerford<br> Chippenham<br> Wilts", "postcode": "SN15 5EL", "town": "Chippenham", "phone": "01249 720568", "id": 26101, "region": "South West" }, "geometry": { "type": "Point", "coordinates": [ -3.469836, 51.205092 ] } },
{ "type": "Feature", "properties": { "lat": 51.45373, "lon": -2.591564, "name": "Frederick Wolland", "address": "Unit 2B Flowers Hill<br> Brislington<br> Bristol", "postcode": "BS4 5JJ", "town": "Bristol", "phone": "0117 9712277", "id": 26104, "region": "South West" }, "geometry": { "type": "Point", "coordinates": [ -2.591564, 51.45373 ] } },
{ "type": "Feature", "properties": { "lat": 51.148678, "lon": -2.989628, "name": "E B Janes Ltd", "address": "32-33 Mart Road<br> Minehead<br> Somerset", "postcode": "TA24 5BJ", "town": "Minehead", "phone": "01643 707275", "id": 26105, "region": "South West" }, "geometry": { "type": "Point", "coordinates": [ -2.989628, 51.148678 ] } },
{ "type": "Feature", "properties": { "lat": 51.322376, "lon": -2.211776, "name": "Van Services Ltd", "address": "Hendy's Yard<br> Lower Grove Road<br> Fishponds<br> Bristol", "postcode": "BS16 2BS", "town": "Bristol", "phone": "01179 586262", "id": 26106, "region": "South West" }, "geometry": { "type": "Point", "coordinates": [ -2.211776, 51.322376 ] } },
{ "type": "Feature", "properties": { "lat": 51.121679, "lon": -2.991076, "name": "D Bennett t\/a Dans Dismantlers", "address": "19 Wireworks Estate<br> Bristol Road<br> Bridgwater<br> Somerset", "postcode": "TA6 4AJ", "town": "Bridgwater", "phone": "01278 445566", "id": 26108, "region": "South West" }, "geometry": { "type": "Point", "coordinates": [ -2.991076, 51.121679 ] } },
{ "type": "Feature", "properties": { "lat": 51.351477, "lon": -1.995031, "name": "E J Shanley & Son (Trowbridge) Ltd", "address": "43 Shails Lane<br> Trowbridge<br> Wiltshire", "postcode": "BA14 8LN", "town": "Trowbridge", "phone": "01225 753333", "id": 26111, "region": "South West" }, "geometry": { "type": "Point", "coordinates": [ -1.995031, 51.351477 ] } },
{ "type": "Feature", "properties": { "lat": 51.399215, "lon": -2.637814, "name": "P Rumery t\/a Audi 4 U", "address": "Unit 18<br> Axe Road<br> Bridgwater", "postcode": "TA6 7RR", "town": "Bridgwater", "phone": "01278 434141", "id": 26112, "region": "South West" }, "geometry": { "type": "Point", "coordinates": [ -2.637814, 51.399215 ] } },
{ "type": "Feature", "properties": { "lat": 51.379002, "lon": -2.143612, "name": "Devizies Reclamation Co Ltd", "address": "West Lavington Station Yard<br> Littleton Pannel<br> West Lavington<br> Devizes", "postcode": "SN10 1PP", "town": "Devizes", "phone": "01380 730411", "id": 26114, "region": "South West" }, "geometry": { "type": "Point", "coordinates": [ -2.143612, 51.379002 ] } },
{ "type": "Feature", "properties": { "lat": 51.47395, "lon": -2.516719, "name": "Gradeacre Limited", "address": "Downs Yard<br> Dundry<br> Bristol", "postcode": "BS41 8LR", "town": "Bristol", "phone": null, "id": 26118, "region": "South West" }, "geometry": { "type": "Point", "coordinates": [ -2.516719, 51.47395 ] } },
{ "type": "Feature", "properties": { "lat": 51.431709, "lon": -2.534808, "name": "J Saunders t\/a VW Audi Breakers", "address": "Station Yard<br> Bath Road<br> Melksham", "postcode": "SN12 8DB", "town": "Melksham", "phone": "01225 790900", "id": 26119, "region": "South West" }, "geometry": { "type": "Point", "coordinates": [ -2.534808, 51.431709 ] } },
{ "type": "Feature", "properties": { "lat": 51.40997, "lon": -2.489079, "name": "D Gwyther t\/a Metro City", "address": "Unit 4<br> North View<br> Staple Hill<br> Bristol", "postcode": "BS16 4NY", "town": "Bristol", "phone": "0117 9040155", "id": 26120, "region": "South West" }, "geometry": { "type": "Point", "coordinates": [ -2.489079, 51.40997 ] } },
{ "type": "Feature", "properties": { "lat": 51.42911, "lon": -2.542829, "name": "D Chiswell t\/a All Audi", "address": "236 Broomhill Rd<br> Brislington<br> Bristol", "postcode": "BS4 5RG", "town": "Bristol", "phone": "0117 949 4136", "id": 26121, "region": "South West" }, "geometry": { "type": "Point", "coordinates": [ -2.542829, 51.42911 ] } },
{ "type": "Feature", "properties": { "lat": 51.453066, "lon": -2.486204, "name": "L M Cole t\/a LMC Autos", "address": "12 Broadmead Lane<br> Keynsham<br> Bristol", "postcode": "BS31 1ST", "town": "Bristol", "phone": "01179 869955", "id": 26123, "region": "South West" }, "geometry": { "type": "Point", "coordinates": [ -2.486204, 51.453066 ] } },
{ "type": "Feature", "properties": { "lat": 51.46804, "lon": -2.543569, "name": "A Bewley", "address": "Whitehouse VW Centre<br> 822 Bath Road<br> Brislington<br> Bristol", "postcode": "BS4 5LQ", "town": "Bristol", "phone": "01179 774424", "id": 26125, "region": "South West" }, "geometry": { "type": "Point", "coordinates": [ -2.543569, 51.46804 ] } },
{ "type": "Feature", "properties": { "lat": 51.450609, "lon": -2.569955, "name": "Tearmallet Ltd t\/a P A Salvage", "address": "109a Tower Road South<br> Warmley<br> Bristol", "postcode": "BS30 8XT", "town": "Bristol", "phone": "0117 9610563", "id": 26127, "region": "South West" }, "geometry": { "type": "Point", "coordinates": [ -2.569955, 51.450609 ] } },
{ "type": "Feature", "properties": { "lat": 51.432213, "lon": -2.536415, "name": "P Farthing t\/a Fiesta Breakers", "address": "S H M Buildings<br> Foundry Lane<br> Speedwell<br> Bristol", "postcode": "BS5 7UZ", "town": "Bristol", "phone": "01179 512266", "id": 26138, "region": "South West" }, "geometry": { "type": "Point", "coordinates": [ -2.536415, 51.432213 ] } },
{ "type": "Feature", "properties": { "lat": 51.346191, "lon": -2.977184, "name": "S Hill t\/a Hills Metals", "address": "Units 4 & 5<br> Stanhope Business Centre<br> Stanhope Road<br> St Philips<br> Bristol", "postcode": "BS2 0UU", "town": "Bristol", "phone": "01179 774453", "id": 26143, "region": "South West" }, "geometry": { "type": "Point", "coordinates": [ -2.977184, 51.346191 ] } },
{ "type": "Feature", "properties": { "lat": 51.43842, "lon": -2.620549, "name": "The Workshop (Saab Specialist) Ltd", "address": "9 Clothier Road<br> Brislington<br> Bristol", "postcode": "BS4 5PS", "town": "Bristol", "phone": null, "id": 26144, "region": "South West" }, "geometry": { "type": "Point", "coordinates": [ -2.620549, 51.43842 ] } },
{ "type": "Feature", "properties": { "lat": 51.467902, "lon": -2.571983, "name": "D J Howe (Weston) Ltd", "address": "ELV facility<br> The Yard<br> Winterstoke Road<br> Weston-super-Mare", "postcode": "BS23 3YE", "town": "Weston-s-Mare", "phone": "01934 623228", "id": 26150, "region": "South West" }, "geometry": { "type": "Point", "coordinates": [ -2.571983, 51.467902 ] } },
{ "type": "Feature", "properties": { "lat": 51.011392, "lon": -3.087906, "name": "S Bicknell and D York T\/A Auto Collections", "address": "Unit A<br> Baynton Road<br> Ashton Gate<br> Bedminster<br> Bristol", "postcode": "BS3 2EB", "town": "Bedminster", "phone": "0117 9877770", "id": 26169, "region": "South West" }, "geometry": { "type": "Point", "coordinates": [ -3.087906, 51.011392 ] } },
{ "type": "Feature", "properties": { "lat": 51.123456, "lon": -2.992608, "name": "Sims Group UK Limited", "address": "Gatton Road<br> Sr Werburghs<br> Bristol", "postcode": "BS2 9SH", "town": "Bristol", "phone": "0117 955 7767", "id": 26180, "region": "South West" }, "geometry": { "type": "Point", "coordinates": [ -2.992608, 51.123456 ] } },
{ "type": "Feature", "properties": { "lat": 51.45373, "lon": -2.591564, "name": "D Bennett T\/A Dans Dismantlers", "address": "The Old Mill<br> Bathpool<br> Taunton", "postcode": "TA1 2DX", "town": "Taunton", "phone": "01823 289584", "id": 26199, "region": "South West" }, "geometry": { "type": "Point", "coordinates": [ -2.591564, 51.45373 ] } },
{ "type": "Feature", "properties": { "lat": 51.273175, "lon": -2.206609, "name": "Johnson Metals Ltd", "address": "Phoenix Road<br> Colley Lane Trading Est<br> Bridgwater<br> Somerset", "postcode": "TA6 5LZ", "town": "Bridgwater", "phone": "01278 422595", "id": 26204, "region": "South West" }, "geometry": { "type": "Point", "coordinates": [ -2.206609, 51.273175 ] } },
{ "type": "Feature", "properties": { "lat": 50.9487, "lon": -2.639484, "name": "D Hales Ltd", "address": "The Old Brickworks<br> Severn Road<br> Avonmouth<br> Bristol", "postcode": "BS11 0YL", "town": "Bristol", "phone": "0117 982 5566", "id": 26213, "region": "South West" }, "geometry": { "type": "Point", "coordinates": [ -2.639484, 50.9487 ] } },
{ "type": "Feature", "properties": { "lat": 51.375495, "lon": -2.855094, "name": "E J Shanley And Son (Trowbridge) Ltd", "address": "21 Broadway North<br> West Wilts Trading Estate<br> Westbury<br> Wiltshire", "postcode": "BA13 4JK", "town": "Westbury", "phone": "01373 822328", "id": 27003, "region": "South West" }, "geometry": { "type": "Point", "coordinates": [ -2.855094, 51.375495 ] } },
{ "type": "Feature", "properties": { "lat": 51.335455, "lon": -2.204195, "name": "J.C.Thomas and Sons Ltd", "address": "The Old Flax Works<br> Unit 7<br> Abbey Trading Est<br> Yeovil", "postcode": "BA21 3AP", "town": "Yeovil", "phone": "01458 835131", "id": 27014, "region": "South West" }, "geometry": { "type": "Point", "coordinates": [ -2.204195, 51.335455 ] } },
{ "type": "Feature", "properties": { "lat": 51.501224, "lon": -1.911181, "name": "S & J Penfold", "address": "Oak Tree Yard<br> Weston Road<br> Hewish<br> Weston super Mare", "postcode": "BS24 6SP", "town": "Weston-s-Mare", "phone": "01934 832309", "id": 27017, "region": "South West" }, "geometry": { "type": "Point", "coordinates": [ -1.911181, 51.501224 ] } },
{ "type": "Feature", "properties": { "lat": 51.473462, "lon": -2.154439, "name": "J W Ransome & Sons", "address": "Canal Road<br> Trowbridge<br> Wilts", "postcode": "BA14 8QU", "town": "Trowbridge", "phone": "01373 461134", "id": 27018, "region": "South West" }, "geometry": { "type": "Point", "coordinates": [ -2.154439, 51.473462 ] } },
{ "type": "Feature", "properties": { "lat": 51.07603, "lon": -2.620144, "name": "Swindon Skips Ltd", "address": "Littleworth<br> Bushton<br> Wootton Bassett<br> Wiltshire", "postcode": "SN4 7RZ", "town": "Wootton Bassett", "phone": "01793 853409", "id": 27020, "region": "South West" }, "geometry": { "type": "Point", "coordinates": [ -2.620144, 51.07603 ] } },
{ "type": "Feature", "properties": { "lat": 51.227395, "lon": -2.893429, "name": "T Green Metals Ltd", "address": "The Willows<br> Bristol Road<br> Allington<br> Chippenham", "postcode": "SN14 6LZ", "town": "Allington", "phone": "01249 652511", "id": 27022, "region": "South West" }, "geometry": { "type": "Point", "coordinates": [ -2.893429, 51.227395 ] } },
{ "type": "Feature", "properties": { "lat": 51.127555, "lon": -3.013824, "name": "Crosskeys Motor Services Ltd", "address": "The Old Railway Station<br> Lydford on Fosse<br> Somerton<br> Somerset", "postcode": "TA11 7EZ", "town": "Somerton", "phone": "01963 240354", "id": 27045, "region": "South West" }, "geometry": { "type": "Point", "coordinates": [ -3.013824, 51.127555 ] } },
{ "type": "Feature", "properties": { "lat": 50.884326, "lon": -2.796014, "name": "S & G Parr t\/a Mark Moor Metals", "address": "Northwick Road<br> Mark<br> Highbridge<br> Somerset", "postcode": "TA9 4PG", "town": "Highbridge", "phone": null, "id": 27046, "region": "South West" }, "geometry": { "type": "Point", "coordinates": [ -2.796014, 50.884326 ] } },
{ "type": "Feature", "properties": { "lat": 51.180673, "lon": -2.323817, "name": "Autospares", "address": "Hamp Yard<br> Taunton Road<br> Bridgwater", "postcode": "TA6 7RR", "town": "Bridgwater", "phone": null, "id": 27047, "region": "South West" }, "geometry": { "type": "Point", "coordinates": [ -2.323817, 51.180673 ] } },
{ "type": "Feature", "properties": { "lat": 51.14759, "lon": -2.717009, "name": "Hallet Metals Ltd", "address": "Blacknell Lane Trading Estate<br> Crewkerne<br> Somerset", "postcode": "TA18 7HE", "town": "Crewkerne", "phone": "01460 78200", "id": 27052, "region": "South West" }, "geometry": { "type": "Point", "coordinates": [ -2.717009, 51.14759 ] } },
{ "type": "Feature", "properties": { "lat": 50.873535, "lon": -2.960454, "name": "J W Ransome & Sons", "address": "Bunns Lane<br> West Woodlands<br> Frome<br> Somerset", "postcode": "BA11 5ES", "town": "Frome", "phone": "01373 452419", "id": 27053, "region": "South West" }, "geometry": { "type": "Point", "coordinates": [ -2.960454, 50.873535 ] } },
{ "type": "Feature", "properties": { "lat": 51.147725, "lon": -2.731039, "name": "Colin White Services", "address": "Park Farm Trading Estate<br> Park Farm Road<br> Glastonbury", "postcode": "BA6 9NN", "town": "Glastonbury", "phone": "01458 833309", "id": 27054, "region": "South West" }, "geometry": { "type": "Point", "coordinates": [ -2.731039, 51.147725 ] } },
{ "type": "Feature", "properties": { "lat": 51.143199, "lon": -2.557393, "name": "Sheppard Group Ltd George Cohen Chard Division", "address": "Springmead Yard<br> Beeching Close<br> Chard<br> Somerset", "postcode": "TA20 1BB", "town": "Chard", "phone": "01460 62443", "id": 27057, "region": "South West" }, "geometry": { "type": "Point", "coordinates": [ -2.557393, 51.143199 ] } },
{ "type": "Feature", "properties": { "lat": 51.35111, "lon": -2.018259, "name": "J C Thomas & Sons", "address": "Thomas Way<br> Glastonbury<br> Somerset", "postcode": "BA6 9LU", "town": "Glastonbury", "phone": "01458 835131", "id": 27058, "region": "South West" }, "geometry": { "type": "Point", "coordinates": [ -2.018259, 51.35111 ] } },
{ "type": "Feature", "properties": { "lat": 51.33315, "lon": -2.417192, "name": "Pylle Motor Spares Ltd", "address": "C\/O Woodstock House<br> Pylle<br> Shepton Mallet<br> Somerset", "postcode": "BA4 6TA", "town": "Shepton Mallet", "phone": "01749 830 448", "id": 27060, "region": "South West" }, "geometry": { "type": "Point", "coordinates": [ -2.417192, 51.33315 ] } },
{ "type": "Feature", "properties": { "lat": 51.469749, "lon": -2.543857, "name": "J Jones", "address": "Caen Hill<br> Devizes<br> Wiltshire", "postcode": "SN10 1RD", "town": "Devizes", "phone": "01380 723484", "id": 27130, "region": "South West" }, "geometry": { "type": "Point", "coordinates": [ -2.543857, 51.469749 ] } },
{ "type": "Feature", "properties": { "lat": 51.445945, "lon": -2.560524, "name": "R H Brice t\/a Dunkerton Dismantlers Ltd", "address": "Old Colliery Yard<br> Splott Lane<br> Dunkerton<br> Bath", "postcode": "BA2 8AU", "town": "Bath", "phone": "01761 431138", "id": 27163, "region": "South West" }, "geometry": { "type": "Point", "coordinates": [ -2.560524, 51.445945 ] } },
{ "type": "Feature", "properties": { "lat": 51.422935, "lon": -2.487698, "name": "D Hales Ltd", "address": "1<br>3 Clay Hill<br> Fishponds<br> Bristol", "postcode": "BS5 7EY", "town": "Bristol", "phone": "0117 9654654", "id": 27168, "region": "South West" }, "geometry": { "type": "Point", "coordinates": [ -2.487698, 51.422935 ] } },
{ "type": "Feature", "properties": { "lat": 51.498915, "lon": -2.694124, "name": "Philip Street Car Breakers", "address": "Philip Street<br> St Philips<br> Bristol", "postcode": "BS2 0TA", "town": "Bristol", "phone": "0117 9723816", "id": 27171, "region": "South West" }, "geometry": { "type": "Point", "coordinates": [ -2.694124, 51.498915 ] } },
{ "type": "Feature", "properties": { "lat": 51.54781, "lon": -2.436704, "name": "Keynsham Car Breakers", "address": "Keynsham Road<br> Keynsham<br> Bristol", "postcode": "BS31 2DE", "town": "Bristol", "phone": "01179 864264", "id": 27172, "region": "South West" }, "geometry": { "type": "Point", "coordinates": [ -2.436704, 51.54781 ] } },
{ "type": "Feature", "properties": { "lat": 51.539576, "lon": -2.619514, "name": "Sims Group UK Limited", "address": "Ironchurch Road<br> Avonmouth<br> Bristol", "postcode": "BS11 9HP", "town": "Bristol", "phone": "0117 9826300", "id": 27184, "region": "South West" }, "geometry": { "type": "Point", "coordinates": [ -2.619514, 51.539576 ] } },
{ "type": "Feature", "properties": { "lat": 51.320869, "lon": -2.544301, "name": "P.A. Blewett & M.D. King T\/A Yate Car Breakers", "address": "Great Western Business Park<br> Dean Road<br> Yate<br> Bristol", "postcode": "BS37 5NH", "town": "Bristol", "phone": "01454 322701", "id": 27204, "region": "South West" }, "geometry": { "type": "Point", "coordinates": [ -2.544301, 51.320869 ] } },
{ "type": "Feature", "properties": { "lat": 51.0227, "lon": -3.087404, "name": "Snows Commercials Ltd", "address": "Compton Greenfield<br> Bristol", "postcode": "BS35 5RY", "town": "Bristol", "phone": "01454 632508", "id": 27209, "region": "South West" }, "geometry": { "type": "Point", "coordinates": [ -3.087404, 51.0227 ] } },
{ "type": "Feature", "properties": { "lat": 51.436193, "lon": -2.58387, "name": "M Wilson", "address": "Quarry Garage<br> Eastcourt Road<br> Temple Cloud<br> Bristol", "postcode": "BS39 5BU", "town": "Bristol", "phone": "01761 452 177", "id": 27218, "region": "South West" }, "geometry": { "type": "Point", "coordinates": [ -2.58387, 51.436193 ] } },
{ "type": "Feature", "properties": { "lat": 51.331916, "lon": -2.86356, "name": "Sims Group UK Limited", "address": "Priory Way<br> Taunton<br> Somerset", "postcode": "TA1 2BB", "town": "Taunton", "phone": "01823 275941", "id": 27253, "region": "South West" }, "geometry": { "type": "Point", "coordinates": [ -2.86356, 51.331916 ] } },
{ "type": "Feature", "properties": { "lat": 51.370325, "lon": -2.928405, "name": "R Bradley t\/a Atex Breakers", "address": "11 Whitehouse Place<br> Bedminster<br> Bristol", "postcode": "BS3 5AN", "town": "Bristol", "phone": "01179 231804", "id": 27260, "region": "South West" }, "geometry": { "type": "Point", "coordinates": [ -2.928405, 51.370325 ] } },
{ "type": "Feature", "properties": { "lat": 51.449431, "lon": -2.572358, "name": "A James t\/a Banwell Breakers", "address": "Riverside<br> Banwell<br> Weston Super Mare", "postcode": "BS29 6EL", "town": "Weston-S-Mare", "phone": "01934 822551", "id": 27261, "region": "South West" }, "geometry": { "type": "Point", "coordinates": [ -2.572358, 51.449431 ] } },
{ "type": "Feature", "properties": { "lat": 51.778931, "lon": -3.245045, "name": "P Burrison t\/a Burrisons Recycling", "address": "Old Junction Road<br> Winterstoke Road<br> Weston-super-Mare<br> North Somerset", "postcode": "BS22 0AL", "town": "Weston-S-Mare", "phone": "01934 633566", "id": 27280, "region": "South West" }, "geometry": { "type": "Point", "coordinates": [ -3.245045, 51.778931 ] } },
{ "type": "Feature", "properties": { "lat": 51.516399, "lon": -3.055913, "name": "Manor Scrap (Fishponds) Ltd", "address": "59-61 Feeder Road<br> Bristol<br> Avon", "postcode": "BS2 0SH", "town": "Bristol", "phone": "0117 971 2056", "id": 27287, "region": "South West" }, "geometry": { "type": "Point", "coordinates": [ -3.055913, 51.516399 ] } },
{ "type": "Feature", "properties": { "lat": 51.59043, "lon": -3.217399, "name": "D Davies T\/A Davies Scrap Metals", "address": "Polar Place Yard<br> Church Street<br> Tredegar<br> Blaenau Gwent", "postcode": "NP22 3AE", "town": "Blaenau Gwent", "phone": "01495 726423", "id": 30039, "region": "EA Wales" }, "geometry": { "type": "Point", "coordinates": [ -3.217399, 51.59043 ] } },
{ "type": "Feature", "properties": { "lat": 51.7432, "lon": -3.368869, "name": "K&L Vehicle Dismantlers", "address": "Old Rover Works<br> Wentloog Road<br> Rumney<br> Cardiff", "postcode": "CF3 2EE", "town": "Cardiff", "phone": "02920 792895", "id": 30047, "region": "EA Wales" }, "geometry": { "type": "Point", "coordinates": [ -3.368869, 51.7432 ] } },
{ "type": "Feature", "properties": { "lat": 51.77525, "lon": -3.382989, "name": "J. Pesci & Sons", "address": "Wern Ddu Industrial Estate<br> Van Road<br> Caerphilly", "postcode": "CF83 3EL", "town": "Caerphilly", "phone": "02920 883019", "id": 30053, "region": "EA Wales" }, "geometry": { "type": "Point", "coordinates": [ -3.382989, 51.77525 ] } },
{ "type": "Feature", "properties": { "lat": 51.492965, "lon": -3.133827, "name": "Heads of the Valley Salvage", "address": "Dowlais Top<br> Merthyr Tydfil", "postcode": "CF47 0NA", "town": "Merthyr Tydfil", "phone": "01685 386649", "id": 30121, "region": "EA Wales" }, "geometry": { "type": "Point", "coordinates": [ -3.133827, 51.492965 ] } },
{ "type": "Feature", "properties": { "lat": 52.039975, "lon": -2.697694, "name": "Abba Scrap", "address": "Unit 4 Penganddu<br> Merthyr Tydfil", "postcode": "CF48 2TY", "town": "Merthyr Tydfil", "phone": "01685 722758", "id": 30123, "region": "EA Wales" }, "geometry": { "type": "Point", "coordinates": [ -2.697694, 52.039975 ] } },
{ "type": "Feature", "properties": { "lat": 51.506255, "lon": -3.098299, "name": "Sims Group UK Limited", "address": "Rover Way<br> Cardiff", "postcode": "CF24 2RX", "town": "Cardiff", "phone": "029 20460517", "id": 30124, "region": "EA Wales" }, "geometry": { "type": "Point", "coordinates": [ -3.098299, 51.506255 ] } },
{ "type": "Feature", "properties": { "lat": 51.611215, "lon": -3.227449, "name": "F G Morris T\/A City Spares", "address": "Water Lane<br> Lower Bullingham<br> Hereford", "postcode": "HR2 6JW", "town": "Hereford", "phone": "01432 268939", "id": 30137, "region": "Midlands" }, "geometry": { "type": "Point", "coordinates": [ -3.227449, 51.611215 ] } },
{ "type": "Feature", "properties": { "lat": 51.5326, "lon": -3.372689, "name": "G M H Vehicle Recyclers", "address": "Mardy Road<br> Rumney<br> Cardiff", "postcode": "CF3 2EH", "town": "Cardiff", "phone": "02920 362229", "id": 30148, "region": "EA Wales" }, "geometry": { "type": "Point", "coordinates": [ -3.372689, 51.5326 ] } },
{ "type": "Feature", "properties": { "lat": 51.598666, "lon": -3.440161, "name": "Longlife Spares", "address": "Old Colliery Yard<br> Gaddfa Ind Est<br> Llanbradach<br> Caerphilly", "postcode": "CF83 3QS", "town": "Caerphilly", "phone": "02920 862399", "id": 30173, "region": "EA Wales" }, "geometry": { "type": "Point", "coordinates": [ -3.440161, 51.598666 ] } },
{ "type": "Feature", "properties": { "lat": 51.604794, "lon": -3.356955, "name": "Llantrisant Autos", "address": "Common Sidings<br> Ynys Maerdy<br> Llantrisant", "postcode": "CF72 8LJ", "town": "Llantrisant", "phone": "01443 223591", "id": 30177, "region": "EA Wales" }, "geometry": { "type": "Point", "coordinates": [ -3.356955, 51.604794 ] } },
{ "type": "Feature", "properties": { "lat": 51.59558, "lon": -3.322669, "name": "Pantile Autos", "address": "6 Pleasant View<br> Penrhiwfer<br> Tonypandy", "postcode": "CF40 1SB", "town": "Tonypandy", "phone": "01443 432324", "id": 30180, "region": "EA Wales" }, "geometry": { "type": "Point", "coordinates": [ -3.322669, 51.59558 ] } },
{ "type": "Feature", "properties": { "lat": 51.69364, "lon": -3.013439, "name": "Davies C&R", "address": "Old Barry Sidings<br> Hopkinstown<br> Pontypridd", "postcode": "CF37 2SG", "town": "Pontypridd", "phone": "N\/A", "id": 30181, "region": "EA Wales" }, "geometry": { "type": "Point", "coordinates": [ -3.013439, 51.69364 ] } },
{ "type": "Feature", "properties": { "lat": 51.47481, "lon": -3.136425, "name": "M & E Bin Hire", "address": "Pentrebach Road<br> Pontypridd<br> Mid Glamorgan", "postcode": "CF37 4BW", "town": "Pontypridd", "phone": "01443 403316", "id": 30186, "region": "EA Wales" }, "geometry": { "type": "Point", "coordinates": [ -3.136425, 51.47481 ] } },
{ "type": "Feature", "properties": { "lat": 51.47481, "lon": -3.136425, "name": "Fred Lloyd &  Sons", "address": "Strick Works<br> Pontypool Rd<br> New Inn<br> Pontypool", "postcode": "NP4 0QR", "town": "Pontypool", "phone": "01495 762611", "id": 30223, "region": "EA Wales" }, "geometry": { "type": "Point", "coordinates": [ -3.136425, 51.47481 ] } },
{ "type": "Feature", "properties": { "lat": 52.20616, "lon": -2.70215, "name": "Bill Way & Co Ltd", "address": "Unit 16 Tremorfa Ind Est<br> Rover Way<br> Cardiff", "postcode": "CF24 5SD", "town": "Merthyr Tydfil", "phone": "02920 464621", "id": 30238, "region": "EA Wales" }, "geometry": { "type": "Point", "coordinates": [ -2.70215, 52.20616 ] } },
{ "type": "Feature", "properties": { "lat": 52.06443, "lon": -2.714962, "name": "First Choice Vehicle Dismantlers", "address": "Units 12\/1<br> Martins Road<br> Rover Way<br> Cardiff", "postcode": "CF24 5SD", "town": "Merthyr Tydfil", "phone": "029 20470444", "id": 30244, "region": "EA Wales" }, "geometry": { "type": "Point", "coordinates": [ -2.714962, 52.06443 ] } },
{ "type": "Feature", "properties": { "lat": 51.784605, "lon": -3.166364, "name": "P & T Moore Vehicle Dismantlers", "address": "The Leasows<br> Stoke Prior<br> Leominster<br> Herefordshire", "postcode": "HR6 0LR", "town": "Leominster", "phone": "01568 760684", "id": 30272, "region": "Midlands" }, "geometry": { "type": "Point", "coordinates": [ -3.166364, 51.784605 ] } },
{ "type": "Feature", "properties": { "lat": 52.06542, "lon": -2.71466, "name": "European Metal Recycling Ltd", "address": "Burcott Road<br> Hereford", "postcode": "HR4 9LW", "town": "Hereford", "phone": "01432 276604", "id": 30308, "region": "Midlands" }, "geometry": { "type": "Point", "coordinates": [ -2.71466, 52.06542 ] } },
{ "type": "Feature", "properties": { "lat": 51.617775, "lon": -2.959684, "name": "A Lewis Skip Hire", "address": "Milfraen Road<br> Blaenant Road<br> Nantyglo<br> Ebbw Vale", "postcode": "NP23 4PQ", "town": "Ebbw Vale", "phone": "01495 310438", "id": 30309, "region": "EA Wales" }, "geometry": { "type": "Point", "coordinates": [ -2.959684, 51.617775 ] } },
{ "type": "Feature", "properties": { "lat": 51.71113, "lon": -3.348029, "name": "Sims Group UK Limited", "address": "Northside<br> South Dock<br> Alexandra Dock<br> Newport", "postcode": "NP9 2WE", "town": "Newport", "phone": "01633 250650", "id": 30312, "region": "EA Wales" }, "geometry": { "type": "Point", "coordinates": [ -3.348029, 51.71113 ] } },
{ "type": "Feature", "properties": { "lat": 51.74373, "lon": -3.518919, "name": "Vauxplus Independant Vauxhall Breakers", "address": "Vauxplus<br> Old Foundary<br> Western Ind Est<br> Ponthir Road<br> Caerleon<br> Newport", "postcode": "NP18 3NN", "town": "Newport", "phone": "01633 420333", "id": 30313, "region": "EA Wales" }, "geometry": { "type": "Point", "coordinates": [ -3.518919, 51.74373 ] } },
{ "type": "Feature", "properties": { "lat": 51.490629, "lon": -3.13735, "name": "Triumphant Motorcycles", "address": "A4 Venture Wales<br> Merthyr Industrial Park<br> Merthyr Tydfil", "postcode": "CF48 4DR", "town": "Merthyr Tydfil", "phone": "01443 691666", "id": 30317, "region": "EA Wales" }, "geometry": { "type": "Point", "coordinates": [ -3.13735, 51.490629 ] } },
{ "type": "Feature", "properties": { "lat": 51.49073, "lon": -3.16433, "name": "J Owen T\/A Grove Farm Autos", "address": "Grove Farm <br> Hirwaun<br> Aberdare<br> Mid Glam", "postcode": "CF44 9HP", "town": "Aberdare", "phone": null, "id": 30318, "region": "EA Wales" }, "geometry": { "type": "Point", "coordinates": [ -3.16433, 51.49073 ] } },
{ "type": "Feature", "properties": { "lat": 51.778931, "lon": -3.245045, "name": "Diggers Vehicle Dismantlers", "address": "Unit 15<br> Martin Road<br> Tremorfa Ind Est<br> Cardiff", "postcode": "CF25 5SD", "town": "Cardiff", "phone": "02920 453888", "id": 30319, "region": "EA Wales" }, "geometry": { "type": "Point", "coordinates": [ -3.245045, 51.778931 ] } },
{ "type": "Feature", "properties": { "lat": 51.467677, "lon": -3.190967, "name": "European Metal Recycling Ltd", "address": "Sirus Hse Roath Docks<br> Cardiff Docks<br> Cardiff", "postcode": "CF1 5ED", "town": "Cardiff", "phone": null, "id": 30322, "region": "EA Wales" }, "geometry": { "type": "Point", "coordinates": [ -3.190967, 51.467677 ] } },
{ "type": "Feature", "properties": { "lat": 51.80005, "lon": -3.176394, "name": "Tredegar Car Dismantlers", "address": "Duke Street Yard<br> Tredegar<br> Gwent", "postcode": "NP22 3DH", "town": "Tredegar", "phone": "01495 726294", "id": 30323, "region": "EA Wales" }, "geometry": { "type": "Point", "coordinates": [ -3.176394, 51.80005 ] } },
{ "type": "Feature", "properties": { "lat": 51.606739, "lon": -3.100178, "name": "Major Motor Services Ltd", "address": "City House<br> 64 Sloper Road<br> Leckwith<br> Cardiff", "postcode": "CF11 8AB", "town": "Cardiff", "phone": "02920 398873", "id": 30324, "region": "EA Wales" }, "geometry": { "type": "Point", "coordinates": [ -3.100178, 51.606739 ] } },
{ "type": "Feature", "properties": { "lat": 51.624295, "lon": -3.457954, "name": "David John Parfitt", "address": "Porters Yard<br> Limestone Road<br> Brynmawr<br> Blaenau Gwent", "postcode": "NP23 4ND", "town": "Blaenau Gwent", "phone": null, "id": 30325, "region": "EA Wales" }, "geometry": { "type": "Point", "coordinates": [ -3.457954, 51.624295 ] } },
{ "type": "Feature", "properties": { "lat": 52.071838, "lon": -2.705418, "name": "J and M Autosalvage Ltd", "address": "R\/O Commercial Street<br> Risca<br> Gwent", "postcode": "NP11 6AW", "town": "Risca", "phone": null, "id": 30327, "region": "EA Wales" }, "geometry": { "type": "Point", "coordinates": [ -2.705418, 52.071838 ] } },
{ "type": "Feature", "properties": { "lat": 51.593566, "lon": -3.350059, "name": "TRH Recovery & Recycling", "address": "Glamorgan Yard<br> Williamstown<br> Tonypandy", "postcode": "CF40 2XT", "town": "Tonypandy", "phone": null, "id": 30328, "region": "EA Wales" }, "geometry": { "type": "Point", "coordinates": [ -3.350059, 51.593566 ] } },
{ "type": "Feature", "properties": { "lat": 51.8147, "lon": -2.702189, "name": "R Baker t\/a J&R Recovery", "address": "102 Holmer Trading Estate<br> Hereford", "postcode": "HR1 1JS", "town": "Hereford", "phone": "01432 269456", "id": 30330, "region": "Midlands" }, "geometry": { "type": "Point", "coordinates": [ -2.702189, 51.8147 ] } },
{ "type": "Feature", "properties": { "lat": 51.641823, "lon": -3.020846, "name": "G P Motorcycles", "address": "Unit 3<br> Maritime Workshops<br> Maritime Industrial Estate<br> Pontypridd", "postcode": "CF37 1NY", "town": "Pontypridd", "phone": "01443 480777", "id": 30331, "region": "EA Wales" }, "geometry": { "type": "Point", "coordinates": [ -3.020846, 51.641823 ] } },
{ "type": "Feature", "properties": { "lat": 51.574881, "lon": -3.229615, "name": "M D H Vehicle Repairs", "address": "Unit 6 Wyeside Commercial Centre<br> Hadnock Rd<br> Monmouth<br> Monmouthshire", "postcode": "NP25 3QL", "town": "Monmouth", "phone": null, "id": 30332, "region": "EA Wales" }, "geometry": { "type": "Point", "coordinates": [ -3.229615, 51.574881 ] } },
{ "type": "Feature", "properties": { "lat": 51.64832, "lon": -3.231799, "name": "C A R", "address": "Colstar Yard<br> Malthouse Lane<br> Llantarman<br> Cwmbran", "postcode": "NP44 3EE", "town": "Cwmbran", "phone": null, "id": 30333, "region": "EA Wales" }, "geometry": { "type": "Point", "coordinates": [ -3.231799, 51.64832 ] } },
{ "type": "Feature", "properties": { "lat": 51.839937, "lon": -2.580163, "name": "Mike Lewis Commercials", "address": "Cwm-nant-yr-odyn<br> Quarry Yard<br> Springfield Estate<br> Pontllanfriath<br> Caerphilly", "postcode": "NP2 2DU", "town": "Caerphilly", "phone": "01495 223701", "id": 30339, "region": "EA Wales" }, "geometry": { "type": "Point", "coordinates": [ -2.580163, 51.839937 ] } },
{ "type": "Feature", "properties": { "lat": 51.416153, "lon": -3.248055, "name": "I C Jenkins and M Jenkins", "address": "Pengam Partmart<br> New Road<br> Hengoed<br> Mid Glamorgan", "postcode": "CF82 8AU", "town": "Hengoed", "phone": "01443 834779", "id": 30342, "region": "EA Wales" }, "geometry": { "type": "Point", "coordinates": [ -3.248055, 51.416153 ] } },
{ "type": "Feature", "properties": { "lat": 52.28252, "lon": -3.363295, "name": "S Haile t\/a Autospares (UK) Ltd", "address": "Lower Central Engineering Works<br> Lower Lydbrook<br> Coleford<br> Gloucestershire", "postcode": "GL17 9NA", "town": "Coleford", "phone": "01600 772148", "id": 30345, "region": "Midlands" }, "geometry": { "type": "Point", "coordinates": [ -3.363295, 52.28252 ] } },
{ "type": "Feature", "properties": { "lat": 51.667378, "lon": -3.195656, "name": "D J Comerford t\/a Atlantic Salvage", "address": "Unit 22 Atlantic Business Park<br> Barry Docks<br> Barry<br> Glamorgan", "postcode": "CF 63 3RF", "town": "Barry", "phone": "01446 744441", "id": 30354, "region": "EA Wales" }, "geometry": { "type": "Point", "coordinates": [ -3.195656, 51.667378 ] } },
{ "type": "Feature", "properties": { "lat": 51.391535, "lon": -3.245285, "name": "J Stephens t\/a Blacksmiths Garage Car Spares", "address": "Gwystre<br> Llandrindod Wells<br> Powys", "postcode": "LD1 6RN", "town": "Llandrindod Wells", "phone": "01597 851444", "id": 30355, "region": "EA Wales" }, "geometry": { "type": "Point", "coordinates": [ -3.245285, 51.391535 ] } },
{ "type": "Feature", "properties": { "lat": 51.47213, "lon": -3.176914, "name": "C Griffiths t\/a Twyn Dismantlers Ltd", "address": "21 Twyn Y Medw<br> Fleur-de-lys<br> Blackwood<br> Gwent", "postcode": "NP12 3UL", "town": "Blackwood", "phone": "01633 252884", "id": 30359, "region": "EA Wales" }, "geometry": { "type": "Point", "coordinates": [ -3.176914, 51.47213 ] } },